~Version Information Section
VERS.          2.0                                     : CWLS LOG ASCII Standard
WRAP.          NO                                      : One line per depth step
~Well Information Section
STRT.FT        900.0                                   : Start Depth
STOP.FT        5500.0                                  : Stop Depth
STEP.FT        0.5                                     : Step
NULL.          -999.0000                               : Null Value
COMP.          UNION TEXAS PETROLEUM CORP              : Company
WELL.          FEE #989                                : Well
FLD .          SULPHUR MINES                           : Field
LOC .                                                  : Location
LOC1.                                                  : Location 1
CTRY.          USA                                     : Country
STAT.          LOUISIANA                               : State
CNTY.          CALCASIEU                               : County
UWI .          170192138600                            : UWI Number
API .          170192138600                            : API Number
SECT.          29                                      : Section
TOWN.          9S                                      : Township
RNGE.          10W                                     : Range
PDAT.          BHF                                     : Perm Datum
EPD .          12.5                                    : Elevation
LMF .          RKB                                     : Log Measured From
DMF .          RKB                                     : Drill Measured From
APD .          15.5                                    : Above Perm Datum
EKB .          28                                      : Elev-Kelly Bushing.
EDF .          27                                      : Elev-Drill Floor
EGL .          12.5                                    : Elev-Ground Level
SRVC.          Petcom, Inc.                            : Service Company
DATE.          18 Oct 2018 @ 20:09                     : Date
~Parameter Information Section
RUN .          1                                       : Run #
DATE.          22 JAN 1985                             : Date log was run
TDD .          5473                                    : Depth - Driller
TDL .          5476                                    : Depth - Logger
BLI .          5472                                    : Bottom Log Interval
TLI .          1027                                    : Top Log Interval
CBD .          9 5/8" @ 1030'                          : Casing - Driller
CBL .          1027                                    : Casing - Logger
BS  .          8.5                                     : Bit Size
DFT .          LIGNOSULFATE                            : Type of Fluid In Hole
DFD .          9.6                                     : Drilling Fluid Density
DFV .          51                                      : Drilling Fluid Viscosity
DFPH.          11.0                                    : Drilling Fluid pH
DFL .          6.0                                     : Drilling Fluid Loss
MSS .          MUD PIT                                 : Source of Sample
RMS .          2.21                                    : Mud Resitivity
MST .          40                                      : Rm Temperature
RMFS.          1.66                                    : Mud Filtrate Resistivity
MFST.          40                                      : Rmf Temperature
RMCS.          3.32                                    : Mud Cake Resitivity
MCST.          40                                      : Rmc Temperature
MFSS.          CALC                                    : Source of Rmf
MCSS.          CALC                                    : Source of Rmc
RMBH.          0.792                                   : Rm at BHT
BHT .          124                                     : Bottom Hole Temperature
MRT .          124 DEGF                                : Max Recorded Temperature
RUN .          2                                       : Run #
DATE.                                                  : Date log was run
TDD .                                                  : Depth - Driller
TDL .                                                  : Depth - Logger
BLI .                                                  : Bottom Log Interval
TLI .                                                  : Top Log Interval
CBD .                                                  : Casing - Driller
CBL .                                                  : Casing - Logger
BS  .                                                  : Bit Size
DFT .                                                  : Type of Fluid In Hole
DFD .                                                  : Drilling Fluid Density
DFV .                                                  : Drilling Fluid Viscosity
DFPH.                                                  : Drilling Fluid pH
DFL .                                                  : Drilling Fluid Loss
MSS .                                                  : Source of Sample
RMS .                                                  : Mud Resitivity
MST .                                                  : Rm Temperature
RMFS.                                                  : Mud Filtrate Resistivity
MFST.                                                  : Rmf Temperature
RMCS.                                                  : Mud Cake Resitivity
MCST.                                                  : Rmc Temperature
MFSS.                                                  : Source of Rmf
MCSS.                                                  : Source of Rmc
RMBH.                                                  : Rm at BHT
BHT .                                                  : Bottom Hole Temperature
MRT .                                                  : Max Recorded Temperature
RUN .          3                                       : Run #
DATE.                                                  : Date log was run
TDD .                                                  : Depth - Driller
TDL .                                                  : Depth - Logger
BLI .                                                  : Bottom Log Interval
TLI .                                                  : Top Log Interval
CBD .                                                  : Casing - Driller
CBL .                                                  : Casing - Logger
BS  .                                                  : Bit Size
DFT .                                                  : Type of Fluid In Hole
DFD .                                                  : Drilling Fluid Density
DFV .                                                  : Drilling Fluid Viscosity
DFPH.                                                  : Drilling Fluid pH
DFL .                                                  : Drilling Fluid Loss
MSS .                                                  : Source of Sample
RMS .                                                  : Mud Resitivity
MST .                                                  : Rm Temperature
RMFS.                                                  : Mud Filtrate Resistivity
MFST.                                                  : Rmf Temperature
RMCS.                                                  : Mud Cake Resitivity
MCST.                                                  : Rmc Temperature
MFSS.                                                  : Source of Rmf
MCSS.                                                  : Source of Rmc
RMBH.                                                  : Rm at BHT
BHT .                                                  : Bottom Hole Temperature
MRT .                                                  : Max Recorded Temperature
~Curve Information Section
DEPTH.FT                                               : 
GR.GAPI                                                : 
SP.mV                                                  : 
RES_D.OHMM                                             : 
RES_S.OHMM                                             : 
CALI.IN                                                : 
NPHI_SS.DEC                                            : 
PHIT.DEC                                               : 
PHIE.DEC                                               : 
SW.DEC                                                 : 
BVW.DEC                                                : 
SHALE.DEC                                              : 
SAND.DEC                                               : 
LS.DEC                                                 : 
RHOB.G/CC                                              : 
RHOB_ORG.G/CC                                          : 
DEN_FLAG.                                              : 
VP.FT/S                                                : 
VP_ORG.FT/S                                            : 
VP_FLAG.                                               : 
VS.FT/S                                                : 
VS_FLAG.                                               : 
AI.                                                    : 
AI_ORG.                                                : 
PR.                                                    : 
PRFRAME.                                               : 
~ASCII Log Data Section
# ...
      3344.0     31.1450    -71.8070      0.4440      0.9210     12.0110   -999.0000      0.3610      0.3029      1.0000      0.3029      0.1609      0.8391      0.0000      2.0554   -999.0000      1.0000   6800.1772   6800.1772      0.0000   2563.1062      1.0000  13976.9082   -999.0000      0.4172      0.1657
      3344.5     27.8250    -76.0950      0.4290      0.9320     12.3230   -999.0000      0.3624      0.3083      1.0000      0.3083      0.1494      0.8506      0.0000      2.0530   -999.0000      1.0000   7017.4453   7017.4453      0.0000   2724.0156      1.0000  14406.5234   -999.0000      0.4113      0.1632
      3345.0     27.7910    -79.0260      0.4160      0.9850     12.7970   -999.0000      0.3637      0.3136      1.0000      0.3136      0.1379      0.8621      0.0000      2.0507   -999.0000      1.0000   7249.1084   7249.1084      0.0000   2902.6501      1.0000  14865.8916   -999.0000      0.4045      0.1606
      3345.5     31.1520    -80.7380      0.4080      1.0650     13.2700   -999.0000      0.3663      0.3116      1.0000      0.3116      0.1494      0.8506      0.0000      2.0466   -999.0000      1.0000   7496.8140   7496.8140      0.0000   2961.5691      1.0000  15342.7744   -999.0000      0.4075      0.1632
      3346.0     34.5060    -80.8820      0.4000      1.0620     13.7560   -999.0000      0.3695      0.3016      1.0000      0.3016      0.1839      0.8161      0.0000      2.0414   -999.0000      1.0000   7247.2173   7247.2173      0.0000   2834.7917      1.0000  14794.6768   -999.0000      0.4097      0.1708
      3346.5     35.6400    -78.3020      0.3930      1.0420     14.2540   -999.0000      0.3721      0.2823      1.0000      0.2823      0.2414      0.7586      0.0000      2.0375   -999.0000      1.0000   6754.7031   6754.7031      0.0000   2581.7361      1.0000  13762.8408   -999.0000      0.4145      0.1836
      3347.0     36.4270    -73.3480      0.3860      1.0130     14.5230   -999.0000      0.3727      0.2699      1.0000      0.2699      0.2759      0.7241      0.0000      2.0368   -999.0000      1.0000   6509.9507   6509.9507      0.0000   2333.8259      1.0000  13259.2510   -999.0000      0.4263      0.1912
      3347.5     40.1450    -68.3950      0.3800      1.0050     14.2410   -999.0000      0.3719      0.2608      1.0000      0.2608      0.2989      0.7011      0.0000      2.0382   -999.0000      1.0000   6280.4204   6280.4204      0.0000   2193.1389      1.0000  12800.9053   -999.0000      0.4306      0.1963
      3348.0     43.8070    -63.4600      0.3760      0.9510     12.9450   -999.0000      0.3726      0.2570      1.0000      0.2570      0.3103      0.6897      0.0000      2.0371   -999.0000      1.0000   6206.0537   6206.0537      0.0000   2183.7915      1.0000  12642.2812   -999.0000      0.4293      0.1989
      3348.5     47.5040    -61.6040      0.3710      0.8400     11.6550   -999.0000      0.3761      0.2448      1.0000      0.2448      0.3491      0.6509      0.0000      2.0315   -999.0000      1.0000   6473.4976   6473.4976      0.0000   2355.8088      1.0000  13151.1455   -999.0000      0.4237      0.2075
      3349.0     47.7060    -66.0110      0.3660      0.6920     11.6330   -999.0000      0.3774      0.2507      1.0000      0.2507      0.3356      0.6644      0.0000      2.0294   -999.0000      1.0000   6951.2510   6951.2510      0.0000   2657.6804      1.0000  14106.9854   -999.0000      0.4144      0.2045
      3349.5     44.0730    -72.1910      0.3610      0.6800     12.6110   -999.0000      0.3783      0.2727      1.0000      0.2727      0.2791      0.7209      0.0000      2.0276   -999.0000      1.0000   7383.2891   7383.2891      0.0000   2892.8057      1.0000  14970.3076   -999.0000      0.4093      0.1919
      3350.0     41.6010    -78.3600      0.3560      0.7690     13.5030   -999.0000      0.3800      0.2907      1.0000      0.2907      0.2350      0.7650      0.0000      2.0245   -999.0000      1.0000   7390.4370   7390.4370      0.0000   2843.2488      1.0000  14962.1279   -999.0000      0.4131      0.1821
      3350.5     39.5710    -84.5010      0.3500      0.8920     14.2200   -999.0000      0.3818      0.3071      1.0000      0.3071      0.1957      0.8043      0.0000      2.0212   -999.0000      1.0000   6757.9893   6757.9893      0.0000   2636.4414      1.0000  13658.9736   -999.0000      0.4102      0.1734
      3351.0     37.5470    -87.4320      0.3450      1.0090     14.4590   -999.0000      0.3845      0.3196      1.0000      0.3196      0.1686      0.8314      0.0000      2.0167   -999.0000      1.0000   6576.7837   6576.7837      0.0000   2372.7490      1.0000  13263.3008   -999.0000      0.4252      0.1674
      3351.5     35.8750    -87.8030      0.3390      1.1000     14.5260   -999.0000      0.3877      0.3280      1.0000      0.3280      0.1541      0.8459      0.0000      2.0112   -999.0000      1.0000   6362.0923   6362.0923      0.0000   2189.2092      1.0000  12795.1787   -999.0000      0.4328      0.1642
      3352.0     36.8660    -87.0220      0.3340      1.1750     14.5080   -999.0000      0.3919      0.3274      1.0000      0.3274      0.1646      0.8354      0.0000      2.0043   -999.0000      1.0000   6042.2231   6042.2231      0.0000   2028.0442      1.0000  12110.6836   -999.0000      0.4365      0.1665
      3352.5     38.2590    -85.6710      0.3280      1.0900     13.8940   -999.0000      0.3968      0.3251      1.0000      0.3251      0.1807      0.8193      0.0000      1.9964   -999.0000      1.0000   5948.2739   5948.2739      0.0000   1965.6075      1.0000  11875.4268   -999.0000      0.4387      0.1701
      3353.0     38.8420    -84.3190      0.3230      0.9460     13.2260   -999.0000      0.3976      0.3219      1.0000      0.3219      0.1903      0.8097      0.0000      1.9952   -999.0000      1.0000   6118.6030   6118.6030      0.0000   2078.8767      1.0000  12207.6221   -999.0000      0.4347      0.1722
      3353.5     37.7710    -83.1850      0.3180      0.8210     13.0800   -999.0000      0.3978      0.3240      1.0000      0.3240      0.1854      0.8146      0.0000      1.9948   -999.0000      1.0000   6483.9487   6483.9487      0.0000   2291.1812      1.0000  12933.9834   -999.0000      0.4287      0.1712
      3354.0     36.1060    -82.6900      0.3160      0.8110     13.2540   -999.0000      0.3975      0.3284      1.0000      0.3284      0.1739      0.8261      0.0000      1.9951   -999.0000      1.0000   6776.2158   6776.2158      0.0000   2438.0779      1.0000  13519.2480   -999.0000      0.4256      0.1686
      3354.5     35.2810    -82.8750      0.3160      0.8460     13.2010   -999.0000      0.3948      0.3290      1.0000      0.3290      0.1669      0.8331      0.0000      1.9995   -999.0000      1.0000   6691.4697   6691.4697      0.0000   2480.5435      1.0000  13379.7930   -999.0000      0.4203      0.1670
      3355.0     37.0630    -83.8210      0.3180      0.8140     12.9480   -999.0000      0.3902      0.3209      1.0000      0.3209      0.1775      0.8225      0.0000      2.0073   -999.0000      1.0000   6649.5552   6649.5552      0.0000   2421.0276      1.0000  13347.7588   -999.0000      0.4236      0.1694
      3355.5     38.8390    -84.7710      0.3260      0.7680     12.6090   -999.0000      0.3861      0.3133      1.0000      0.3133      0.1886      0.8114      0.0000      2.0140   -999.0000      1.0000   6544.1167   6544.1167      0.0000   2343.4358      1.0000  13179.9648   -999.0000      0.4265      0.1719
      3356.0     39.6760    -85.6380      0.3340      0.7450     12.5970   -999.0000      0.3847      0.3106      1.0000      0.3106      0.1926      0.8074      0.0000      2.0164   -999.0000      1.0000   6388.8779   6388.8779      0.0000   2276.5918      1.0000  12882.5811   -999.0000      0.4273      0.1727
      3356.5     39.3430    -84.9300      0.3420      0.8360     12.9120   -999.0000      0.3848      0.3108      1.0000      0.3108      0.1923      0.8077      0.0000      2.0162   -999.0000      1.0000   6388.8779   6388.8779      0.0000   2281.0513      1.0000  12881.2695   -999.0000      0.4270      0.1727
