~Version Information Section
VERS.          2.0                                     : CWLS LOG ASCII Standard
WRAP.          NO                                      : One line per depth step
~Well Information Section
STRT.FT        900.0                                   : Start Depth
STOP.FT        5500.0                                  : Stop Depth
STEP.FT        0.5                                     : Step
NULL.          -999.0000                               : Null Value
COMP.          UNION TEXAS PETROLEUM CORP              : Company
WELL.          FEE #989                                : Well
FLD .          SULPHUR MINES                           : Field
LOC .                                                  : Location
LOC1.                                                  : Location 1
CTRY.          USA                                     : Country
STAT.          LOUISIANA                               : State
CNTY.          CALCASIEU                               : County
UWI .          170192138600                            : UWI Number
API .          170192138600                            : API Number
SECT.          29                                      : Section
TOWN.          9S                                      : Township
RNGE.          10W                                     : Range
PDAT.          BHF                                     : Perm Datum
EPD .          12.5                                    : Elevation
LMF .          RKB                                     : Log Measured From
DMF .          RKB                                     : Drill Measured From
APD .          15.5                                    : Above Perm Datum
EKB .          28                                      : Elev-Kelly Bushing.
EDF .          27                                      : Elev-Drill Floor
EGL .          12.5                                    : Elev-Ground Level
SRVC.          Petcom, Inc.                            : Service Company
DATE.          18 Oct 2018 @ 20:09                     : Date
~Parameter Information Section
RUN .          1                                       : Run #
DATE.          22 JAN 1985                             : Date log was run
TDD .          5473                                    : Depth - Driller
TDL .          5476                                    : Depth - Logger
BLI .          5472                                    : Bottom Log Interval
TLI .          1027                                    : Top Log Interval
CBD .          9 5/8" @ 1030'                          : Casing - Driller
CBL .          1027                                    : Casing - Logger
BS  .          8.5                                     : Bit Size
DFT .          LIGNOSULFATE                            : Type of Fluid In Hole
DFD .          9.6                                     : Drilling Fluid Density
DFV .          51                                      : Drilling Fluid Viscosity
DFPH.          11.0                                    : Drilling Fluid pH
DFL .          6.0                                     : Drilling Fluid Loss
MSS .          MUD PIT                                 : Source of Sample
RMS .          2.21                                    : Mud Resitivity
MST .          40                                      : Rm Temperature
RMFS.          1.66                                    : Mud Filtrate Resistivity
MFST.          40                                      : Rmf Temperature
RMCS.          3.32                                    : Mud Cake Resitivity
MCST.          40                                      : Rmc Temperature
MFSS.          CALC                                    : Source of Rmf
MCSS.          CALC                                    : Source of Rmc
RMBH.          0.792                                   : Rm at BHT
BHT .          124                                     : Bottom Hole Temperature
MRT .          124 DEGF                                : Max Recorded Temperature
RUN .          2                                       : Run #
DATE.                                                  : Date log was run
TDD .                                                  : Depth - Driller
TDL .                                                  : Depth - Logger
BLI .                                                  : Bottom Log Interval
TLI .                                                  : Top Log Interval
CBD .                                                  : Casing - Driller
CBL .                                                  : Casing - Logger
BS  .                                                  : Bit Size
DFT .                                                  : Type of Fluid In Hole
DFD .                                                  : Drilling Fluid Density
DFV .                                                  : Drilling Fluid Viscosity
DFPH.                                                  : Drilling Fluid pH
DFL .                                                  : Drilling Fluid Loss
MSS .                                                  : Source of Sample
RMS .                                                  : Mud Resitivity
MST .                                                  : Rm Temperature
RMFS.                                                  : Mud Filtrate Resistivity
MFST.                                                  : Rmf Temperature
RMCS.                                                  : Mud Cake Resitivity
MCST.                                                  : Rmc Temperature
MFSS.                                                  : Source of Rmf
MCSS.                                                  : Source of Rmc
RMBH.                                                  : Rm at BHT
BHT .                                                  : Bottom Hole Temperature
MRT .                                                  : Max Recorded Temperature
RUN .          3                                       : Run #
DATE.                                                  : Date log was run
TDD .                                                  : Depth - Driller
TDL .                                                  : Depth - Logger
BLI .                                                  : Bottom Log Interval
TLI .                                                  : Top Log Interval
CBD .                                                  : Casing - Driller
CBL .                                                  : Casing - Logger
BS  .                                                  : Bit Size
DFT .                                                  : Type of Fluid In Hole
DFD .                                                  : Drilling Fluid Density
DFV .                                                  : Drilling Fluid Viscosity
DFPH.                                                  : Drilling Fluid pH
DFL .                                                  : Drilling Fluid Loss
MSS .                                                  : Source of Sample
RMS .                                                  : Mud Resitivity
MST .                                                  : Rm Temperature
RMFS.                                                  : Mud Filtrate Resistivity
MFST.                                                  : Rmf Temperature
RMCS.                                                  : Mud Cake Resitivity
MCST.                                                  : Rmc Temperature
MFSS.                                                  : Source of Rmf
MCSS.                                                  : Source of Rmc
RMBH.                                                  : Rm at BHT
BHT .                                                  : Bottom Hole Temperature
MRT .                                                  : Max Recorded Temperature
~Curve Information Section
DEPTH.FT                                               : 
GR.GAPI                                                : 
SP.mV                                                  : 
RES_D.OHMM                                             : 
RES_S.OHMM                                             : 
CALI.IN                                                : 
NPHI_SS.DEC                                            : 
PHIT.DEC                                               : 
PHIE.DEC                                               : 
SW.DEC                                                 : 
BVW.DEC                                                : 
SHALE.DEC                                              : 
SAND.DEC                                               : 
LS.DEC                                                 : 
RHOB.G/CC                                              : 
RHOB_ORG.G/CC                                          : 
DEN_FLAG.                                              : 
VP.FT/S                                                : 
VP_ORG.FT/S                                            : 
VP_FLAG.                                               : 
VS.FT/S                                                : 
VS_FLAG.                                               : 
AI.                                                    : 
AI_ORG.                                                : 
PR.                                                    : 
PRFRAME.                                               : 
~ASCII Log Data Section
# ...
      5099.0     66.4860    -20.6380      1.5210      1.8180     10.0910      0.3250      0.1771      0.0686      1.0000      0.0686      0.6129      0.3086      0.0785      2.3667      2.1440      1.0000   9222.3701   9222.3701      0.0000   4325.5898      1.0000  21826.2754  19772.7617      0.3590      0.2807
      5099.5     68.1390    -19.0560      1.5020      1.7900     10.2590      0.3540      0.1897      0.0722      1.0000      0.0722      0.6194      0.3022      0.0785      2.3458      2.1050      1.0000   8941.5850   8941.5850      0.0000   4131.1470      1.0000  20975.4668  18822.0371      0.3643      0.2821
      5100.0     70.4210    -16.8340      1.4830      1.6470     10.1720      0.3880      0.2075      0.0656      0.9998      0.0656      0.6839      0.2393      0.0768      2.3167      1.9870      1.0000   8657.1836   8657.1836      0.0000   3913.4587      1.0000  20055.8086  17201.8242      0.3716      0.2961
      5100.5     68.2800    -14.6130      1.4700      1.4440     10.0240      0.4150      0.2318      0.0718      0.9993      0.0717      0.6903      0.2377      0.0720      2.2771      1.9130      1.0000   8323.0684   8323.0684      0.0000   3704.3235      1.0000  18952.3203  15922.0293      0.3765      0.2967
      5101.0     66.0200    -12.6110      1.4810      1.2170     10.1590      0.4280      0.2504      0.0792      0.9985      0.0790      0.6839      0.2458      0.0704      2.2458      1.8290      1.0000   8081.8530   8081.8530      0.0000   3567.0759      1.0000  18150.4961  14781.7090      0.3790      0.2949
      5101.5     66.0250    -11.4910      1.4900      1.1250     10.5060      0.4300      0.2635      0.0969      1.0000      0.0969      0.6323      0.3217      0.0460      2.2229      1.8610      1.0000   7995.6504   7995.6504      0.0000   3547.0291      1.0000  17773.6641  14879.9053      0.3775      0.2789
      5102.0     66.6530    -11.3900      1.4990      1.1320     10.7810      0.4210      0.2699      0.1027      1.0000      0.1027      0.6194      0.3330      0.0476      2.2125      2.0000      1.0000   8140.4717   8140.4717      0.0000   3674.2639      1.0000  18010.7949  16280.9434      0.3721      0.2764
      5102.5     66.6570    -11.2880      1.5080      1.1390     10.7960      0.4080      0.2671      0.0948      1.0000      0.0948      0.6452      0.3169      0.0379      2.2167      2.1380      1.0000   8496.6094   8496.6094      0.0000   3895.1311      1.0000  18834.1504  18165.7500      0.3670      0.2803
      5103.0     66.9280    -10.3430      1.5150      1.1200     10.7380      0.4080      0.2584      0.0700      0.9969      0.0698      0.7290      0.2331      0.0379      2.2313      2.2260      1.0000   8886.8350   8886.8350      0.0000   4077.5789      1.0000  19828.7500  19782.0957      0.3667      0.2989
      5103.5     70.4740     -9.2950      1.4570      1.1050     10.5570      0.4210      0.2412      0.0314      1.0000      0.0314      0.8699      0.0889      0.0412      2.2604      2.2440      1.0000   9157.7607   9157.7607      0.0000   4191.8843      1.0000  20700.3555  20550.0156      0.3675      0.3308
      5104.0     74.0420     -8.5300      1.4110      1.1190      9.9780      0.4300      0.2292      0.0197      1.0000      0.0197      0.9139      0.0336      0.0525      2.2812      2.2500      1.0000   9211.0713   9211.0713      0.0000   4178.4863      1.0000  21012.7559  20724.9102      0.3704      0.3426
      5104.5     76.4030     -8.3000      1.3660      1.1320      9.4970      0.4300      0.2183      0.0129      1.0000      0.0129      0.9410      0.0000      0.0590      2.3000      2.2520      1.0000   9084.2197   9084.2197      0.0000   4151.1553      1.0000  20893.7051  20457.6641      0.3680      0.3499
      5105.0     75.6860     -8.0700      1.3230      1.0890      9.3310      0.4150      0.2133      0.0140      1.0000      0.0140      0.9346      0.0048      0.0606      2.3083      2.2530      1.0000   8992.8867   8992.8867      0.0000   4110.1382      1.0000  20758.5801  20260.9746      0.3680      0.3487
      5105.5     74.9700     -7.8300      1.2810      1.0240      9.3300      0.4030      0.2107      0.0154      1.0000      0.0154      0.9271      0.0123      0.0606      2.3125      2.2520      1.0000   9019.8984   9019.8984      0.0000   4109.0620      1.0000  20858.5156  20312.8125      0.3691      0.3471
      5106.0     75.2190     -8.3690      1.2400      1.0030      9.3540      0.3860      0.2032      0.0146      1.0000      0.0146      0.9281      0.0113      0.0606      2.3250      2.2500      1.0000   9057.4785   9057.4785      0.0000   4144.1899      1.0000  21058.6387  20379.3262      0.3676      0.3473
      5106.5     76.4640     -8.9990      1.2010      0.9900      9.3890      0.3700      0.2019      0.0121      1.0000      0.0121      0.9403      0.0040      0.0558      2.3271      2.2430      1.0000   9160.6133   9160.6133      0.0000   4198.3359      1.0000  21317.5098  20547.2559      0.3671      0.3491
      5107.0     77.7410     -9.3780      1.1750      0.9970      9.4250      0.3560      0.2018      0.0106      1.0000      0.0106      0.9475      0.0000      0.0525      2.3271      2.2310      1.0000   9264.8359   9264.8359      0.0000   4224.8921      1.0000  21560.0449  20669.8477      0.3687      0.3501
      5107.5     77.5770     -9.3080      1.1620      1.0020      9.4600      0.3550      0.2067      0.0099      1.0000      0.0099      0.9520      0.0003      0.0476      2.3187      2.2170      1.0000   9218.3740   9218.3740      0.0000   4192.5483      1.0000  21375.1035  20437.1348      0.3696      0.3502
      5108.0     77.4540     -9.2370      1.1490      1.0110      9.4950      0.3620      0.2166      0.0106      1.0000      0.0106      0.9509      0.0047      0.0444      2.3021      2.2100      1.0000   9055.9199   9055.9199      0.0000   4037.4856      1.0000  20847.4824  20013.5840      0.3760      0.3493
      5108.5     78.3110     -9.1680      1.1350      1.0210      9.5310      0.3760      0.2390      0.0093      1.0000      0.0093      0.9610      0.0027      0.0363      2.2646      2.2090      1.0000   8652.3906   8652.3906      0.0000   3829.9172      1.0000  19594.0605  19113.1328      0.3782      0.3501
      5109.0     79.1640     -9.2810      1.1270      1.0670      9.5410      0.3880      0.2526      0.0075      1.0000      0.0075      0.9705      0.0014      0.0282      2.2417      2.2080      1.0000   8357.2217   8357.2217      0.0000   3612.4775      1.0000  18734.1035  18452.7441      0.3851      0.3506
      5109.5     80.0170     -9.5120      1.1180      1.2030      9.5410      0.3940      0.2639      0.0070      1.0000      0.0070      0.9735      0.0000      0.0265      2.2229      2.1960      1.0000   8153.8135   8153.8135      0.0000   3457.6533      1.0000  18125.2480  17905.7754      0.3904      0.3510
      5110.0     80.8690     -9.7410      1.1260      1.1470      9.5410      0.3910      0.2701      0.0067      1.0000      0.0067      0.9751      0.0000      0.0249      2.2125      2.1730      1.0000   8010.0605   8010.0605      0.0000   3355.1233      1.0000  17722.2598  17405.8633      0.3936      0.3511
      5110.5     81.7180     -9.9040      1.1360      1.0880      9.5410      0.3850      0.2687      0.0045      1.0000      0.0045      0.9832      0.0000      0.0168      2.2146      2.1600      1.0000   7931.8496   7931.8496      0.0000   3289.1926      1.0000  17565.7422  17132.7949      0.3962      0.3513
      5111.0     80.9940     -9.6740      1.1460      1.0150      9.5410      0.3770      0.2649      0.0045      1.0000      0.0045      0.9832      0.0000      0.0168      2.2208      2.1660      1.0000   7880.2827   7880.2827      0.0000   3245.5837      1.0000  17500.7949  17068.6914      0.3979      0.3513
      5111.5     78.6710     -9.4480      1.1530      0.9320      9.5340      0.3800      0.2648      0.0095      1.0000      0.0095      0.9642      0.0190      0.0168      2.2208      2.1770      1.0000   7829.1372   7829.1372      0.0000   3219.2319      1.0000  17387.2090  17044.0312      0.3983      0.3471
