~Version Information Section
VERS.          2.0                                     : CWLS LOG ASCII Standard
WRAP.          NO                                      : One line per depth step
~Well Information Section
STRT.FT        900.0                                   : Start Depth
STOP.FT        5500.0                                  : Stop Depth
STEP.FT        0.5                                     : Step
NULL.          -999.0000                               : Null Value
COMP.          UNION TEXAS PETROLEUM CORP              : Company
WELL.          FEE #989                                : Well
FLD .          SULPHUR MINES                           : Field
LOC .                                                  : Location
LOC1.                                                  : Location 1
CTRY.          USA                                     : Country
STAT.          LOUISIANA                               : State
CNTY.          CALCASIEU                               : County
UWI .          170192138600                            : UWI Number
API .          170192138600                            : API Number
SECT.          29                                      : Section
TOWN.          9S                                      : Township
RNGE.          10W                                     : Range
PDAT.          BHF                                     : Perm Datum
EPD .          12.5                                    : Elevation
LMF .          RKB                                     : Log Measured From
DMF .          RKB                                     : Drill Measured From
APD .          15.5                                    : Above Perm Datum
EKB .          28                                      : Elev-Kelly Bushing.
EDF .          27                                      : Elev-Drill Floor
EGL .          12.5                                    : Elev-Ground Level
SRVC.          Petcom, Inc.                            : Service Company
DATE.          18 Oct 2018 @ 20:09                     : Date
~Parameter Information Section
RUN .          1                                       : Run #
DATE.          22 JAN 1985                             : Date log was run
TDD .          5473                                    : Depth - Driller
TDL .          5476                                    : Depth - Logger
BLI .          5472                                    : Bottom Log Interval
TLI .          1027                                    : Top Log Interval
CBD .          9 5/8" @ 1030'                          : Casing - Driller
CBL .          1027                                    : Casing - Logger
BS  .          8.5                                     : Bit Size
DFT .          LIGNOSULFATE                            : Type of Fluid In Hole
DFD .          9.6                                     : Drilling Fluid Density
DFV .          51                                      : Drilling Fluid Viscosity
DFPH.          11.0                                    : Drilling Fluid pH
DFL .          6.0                                     : Drilling Fluid Loss
MSS .          MUD PIT                                 : Source of Sample
RMS .          2.21                                    : Mud Resitivity
MST .          40                                      : Rm Temperature
RMFS.          1.66                                    : Mud Filtrate Resistivity
MFST.          40                                      : Rmf Temperature
RMCS.          3.32                                    : Mud Cake Resitivity
MCST.          40                                      : Rmc Temperature
MFSS.          CALC                                    : Source of Rmf
MCSS.          CALC                                    : Source of Rmc
RMBH.          0.792                                   : Rm at BHT
BHT .          124                                     : Bottom Hole Temperature
MRT .          124 DEGF                                : Max Recorded Temperature
RUN .          2                                       : Run #
DATE.                                                  : Date log was run
TDD .                                                  : Depth - Driller
TDL .                                                  : Depth - Logger
BLI .                                                  : Bottom Log Interval
TLI .                                                  : Top Log Interval
CBD .                                                  : Casing - Driller
CBL .                                                  : Casing - Logger
BS  .                                                  : Bit Size
DFT .                                                  : Type of Fluid In Hole
DFD .                                                  : Drilling Fluid Density
DFV .                                                  : Drilling Fluid Viscosity
DFPH.                                                  : Drilling Fluid pH
DFL .                                                  : Drilling Fluid Loss
MSS .                                                  : Source of Sample
RMS .                                                  : Mud Resitivity
MST .                                                  : Rm Temperature
RMFS.                                                  : Mud Filtrate Resistivity
MFST.                                                  : Rmf Temperature
RMCS.                                                  : Mud Cake Resitivity
MCST.                                                  : Rmc Temperature
MFSS.                                                  : Source of Rmf
MCSS.                                                  : Source of Rmc
RMBH.                                                  : Rm at BHT
BHT .                                                  : Bottom Hole Temperature
MRT .                                                  : Max Recorded Temperature
RUN .          3                                       : Run #
DATE.                                                  : Date log was run
TDD .                                                  : Depth - Driller
TDL .                                                  : Depth - Logger
BLI .                                                  : Bottom Log Interval
TLI .                                                  : Top Log Interval
CBD .                                                  : Casing - Driller
CBL .                                                  : Casing - Logger
BS  .                                                  : Bit Size
DFT .                                                  : Type of Fluid In Hole
DFD .                                                  : Drilling Fluid Density
DFV .                                                  : Drilling Fluid Viscosity
DFPH.                                                  : Drilling Fluid pH
DFL .                                                  : Drilling Fluid Loss
MSS .                                                  : Source of Sample
RMS .                                                  : Mud Resitivity
MST .                                                  : Rm Temperature
RMFS.                                                  : Mud Filtrate Resistivity
MFST.                                                  : Rmf Temperature
RMCS.                                                  : Mud Cake Resitivity
MCST.                                                  : Rmc Temperature
MFSS.                                                  : Source of Rmf
MCSS.                                                  : Source of Rmc
RMBH.                                                  : Rm at BHT
BHT .                                                  : Bottom Hole Temperature
MRT .                                                  : Max Recorded Temperature
~Curve Information Section
DEPTH.FT                                               : 
GR.GAPI                                                : 
SP.mV                                                  : 
RES_D.OHMM                                             : 
RES_S.OHMM                                             : 
CALI.IN                                                : 
NPHI_SS.DEC                                            : 
PHIT.DEC                                               : 
PHIE.DEC                                               : 
SW.DEC                                                 : 
BVW.DEC                                                : 
SHALE.DEC                                              : 
SAND.DEC                                               : 
LS.DEC                                                 : 
RHOB.G/CC                                              : 
RHOB_ORG.G/CC                                          : 
DEN_FLAG.                                              : 
VP.FT/S                                                : 
VP_ORG.FT/S                                            : 
VP_FLAG.                                               : 
VS.FT/S                                                : 
VS_FLAG.                                               : 
AI.                                                    : 
AI_ORG.                                                : 
PR.                                                    : 
PRFRAME.                                               : 
~ASCII Log Data Section
# ...
      4800.0     56.2310    -65.0640      0.3370      0.6480     11.1120      0.4290      0.3149      0.1800      1.0000      0.1800      0.4283      0.5717      0.0000      2.1333      1.9560      1.0000   7978.9990   7978.9990      0.0000   3477.1990      1.0000  17021.8652  15606.9219      0.3828      0.2251
      4800.5     58.0390    -65.5810      0.3340      0.6800     11.3870      0.4470      0.3125      0.1729      1.0000      0.1729      0.4468      0.5532      0.0000      2.1375      1.9600      1.0000   7997.8887   7997.8887      0.0000   3483.8459      1.0000  17095.4883  15675.8623      0.3829      0.2292
      4801.0     60.5060    -64.5580      0.3310      0.7160     11.3850      0.4510      0.3076      0.1595      1.0000      0.1595      0.4814      0.5186      0.0000      2.1458      1.9920      1.0000   8053.0210   8053.0210      0.0000   3532.1528      1.0000  17280.4395  16041.6182      0.3809      0.2368
      4801.5     61.5190    -63.4010      0.3280      0.7490     11.0810      0.4470      0.3052      0.1509      1.0000      0.1509      0.5055      0.4945      0.0000      2.1500      2.0150      1.0000   8117.6733   8117.6733      0.0000   3592.9778      1.0000  17452.9980  16357.1123      0.3782      0.2422
      4802.0     62.4170    -63.1500      0.3190      0.7630     10.6270      0.4330      0.3002      0.1429      1.0000      0.1429      0.5241      0.4759      0.0000      2.1583      2.0410      1.0000   8187.7280   8187.7280      0.0000   3655.1008      1.0000  17671.8457  16711.1523      0.3756      0.2463
      4802.5     61.5660    -64.5660      0.3080      0.7910     10.0600      0.4170      0.3001      0.1494      1.0000      0.1494      0.5023      0.4977      0.0000      2.1583      2.0470      1.0000   8250.0088   8250.0088      0.0000   3687.8518      1.0000  17806.2695  16887.7676      0.3751      0.2415
      4803.0     57.6610    -67.7550      0.2990      0.8670      9.8190      0.4130      0.3023      0.1709      1.0000      0.1709      0.4349      0.5651      0.0000      2.1542      2.0430      1.0000   8295.1064   8295.1064      0.0000   3702.4644      1.0000  17869.0430  16946.9023      0.3756      0.2265
      4803.5     51.7310    -71.5960      0.2940      0.8200     10.1020      0.4180      0.3071      0.1975      1.0000      0.1975      0.3567      0.6433      0.0000      2.1458      2.0420      1.0000   8292.0801   8292.0801      0.0000   3658.9834      1.0000  17793.4219  16932.4277      0.3791      0.2092
      4804.0     47.3100    -74.9590      0.2910      0.7450     10.6790      0.4180      0.3144      0.2200      1.0000      0.2200      0.3001      0.6999      0.0000      2.1333      2.0400      1.0000   8125.7212   8125.7212      0.0000   3501.1543      1.0000  17334.8730  16576.4707      0.3860      0.1966
      4804.5     46.7740    -75.3950      0.2890      0.6840     11.4720      0.4210      0.3257      0.2302      1.0000      0.2302      0.2934      0.7066      0.0000      2.1146      2.0010      1.0000   7679.6069   7679.6069      0.0000   3273.6558      1.0000  16239.1680  15366.8926      0.3890      0.1951
      4805.0     50.6620    -72.0220      0.2870      0.7220     11.0400      0.4440      0.3272      0.2146      1.0000      0.2146      0.3441      0.6559      0.0000      2.1125      1.9580      1.0000   7404.8838   7404.8838      0.0000   3158.8530      1.0000  15642.8164  14498.7617      0.3888      0.2064
      4805.5     54.4160    -68.4880      0.2840      0.6960     10.1970      0.4680      0.3123      0.1885      1.0000      0.1885      0.3963      0.6037      0.0000      2.1375      1.9260      1.0000   7678.0146   7678.0146      0.0000   3246.9678      1.0000  16411.7559  14787.8564      0.3911      0.2179
      4806.0     53.9320    -68.4260      0.2800      0.6000      9.5240      0.4760      0.3097      0.1885      1.0000      0.1885      0.3913      0.6087      0.0000      2.1417      1.9100      1.0000   8023.2354   8023.2354      0.0000   3450.9792      1.0000  17183.0957  15324.3789      0.3865      0.2168
      4806.5     53.1120    -72.1370      0.2770      0.5020     10.0260      0.4500      0.3096      0.1953      1.0000      0.1953      0.3694      0.6306      0.0000      2.1417      1.8690      1.0000   8200.4854   8200.4854      0.0000   3626.4702      1.0000  17562.7051  15326.7070      0.3784      0.2120
      4807.0     51.3940    -78.3650      0.2730      0.5560     11.2690      0.4240      0.3095      0.2075      1.0000      0.2075      0.3293      0.6707      0.0000      2.1417      1.7680      1.0000   8362.3926   8362.3926      0.0000   3738.8584      1.0000  17909.4570  14784.7100      0.3751      0.2031
      4807.5     47.9270    -82.4600      0.2680      0.6450     12.8060      0.4390      0.3168      0.2282      1.0000      0.2282      0.2797      0.7203      0.0000      2.1292      1.6330      1.0000   8461.5254   8461.5254      0.0000   3682.2109      1.0000  18015.9980  13817.6709      0.3832      0.1921
      4808.0     44.4600    -85.9700      0.2600      0.6980     14.1100      0.4740      0.3280      0.2512      1.0000      0.2512      0.2340      0.7660      0.0000      2.1104      1.5570      1.0000   7979.5723   7979.5723      0.0000   3452.6191      1.0000  16840.2227  12424.1943      0.3848      0.1819
      4808.5     40.9880    -87.9340      0.2520      0.7180     14.3050      0.5040      0.3366      0.2707      1.0000      0.2707      0.1958      0.8042      0.0000      2.0958      1.6250      1.0000   7467.0332   7467.0332      0.0000   3075.0154      1.0000  15649.6572  12133.9287      0.3979      0.1735
      4809.0     38.1250    -88.9090      0.2450      0.7830     14.2980      0.5150      0.3479      0.2894      1.0000      0.2894      0.1681      0.8319      0.0000      2.0771      1.7100      1.0000   6988.9507   6988.9507      0.0000   2803.0293      1.0000  14516.6328  11951.1055      0.4042      0.1673
      4809.5     36.9340    -88.9690      0.2380      0.8610     14.2900      0.5250      0.3491      0.2939      1.0000      0.2939      0.1583      0.8417      0.0000      2.0750      1.7860      1.0000   6918.8833   6918.8833      0.0000   2696.2573      1.0000  14356.6836  12357.1260      0.4105      0.1651
      4810.0     36.3020    -89.0310      0.2310      0.8050     14.2800      0.5350      0.3478      0.2946      1.0000      0.2946      0.1531      0.8469      0.0000      2.0771      1.8110      1.0000   7050.6450   7050.6450      0.0000   2757.7007      1.0000  14644.7773  12768.7178      0.4097      0.1640
      4810.5     37.2970    -89.0920      0.2240      0.7400     14.2560      0.5500      0.3441      0.2888      1.0000      0.2888      0.1608      0.8392      0.0000      2.0833      1.7940      1.0000   7228.5674   7228.5674      0.0000   2858.5393      1.0000  15059.5146  12968.0498      0.4073      0.1657
      4811.0     39.0540    -89.2040      0.2160      0.6820     14.2310      0.5590      0.3378      0.2788      1.0000      0.2788      0.1748      0.8252      0.0000      2.0938      1.7260      1.0000   7312.1328   7312.1328      0.0000   2954.2944      1.0000  15309.7783  12620.7412      0.4025      0.1688
      4811.5     41.2070    -89.4760      0.2140      0.6340     13.9460      0.5600      0.3392      0.2739      1.0000      0.2739      0.1923      0.8077      0.0000      2.0917      1.6420      1.0000   7424.0698   7424.0698      0.0000   3036.1526      1.0000  15528.6797  12190.3223      0.3996      0.1727
      4812.0     42.4650    -89.7480      0.2120      0.5770     13.7870      0.5480      0.3354      0.2675      1.0000      0.2675      0.2025      0.7975      0.0000      2.0979      1.6440      1.0000   7547.7964   7547.7964      0.0000   3140.0012      1.0000  15834.6475  12408.5781      0.3954      0.1749
      4812.5     43.6100    -89.7690      0.2110      0.5910     14.1030      0.5210      0.3317      0.2611      1.0000      0.2611      0.2128      0.7872      0.0000      2.1042      1.7300      1.0000   7717.1211   7717.1211      0.0000   3266.1348      1.0000  16238.1094  13350.6201      0.3909      0.1772
