~Version Information Section
VERS.          2.0                                     : CWLS LOG ASCII Standard
WRAP.          NO                                      : One line per depth step
~Well Information Section
STRT.FT        900.0                                   : Start Depth
STOP.FT        5500.0                                  : Stop Depth
STEP.FT        0.5                                     : Step
NULL.          -999.0000                               : Null Value
COMP.          UNION TEXAS PETROLEUM CORP              : Company
WELL.          FEE #989                                : Well
FLD .          SULPHUR MINES                           : Field
LOC .                                                  : Location
LOC1.                                                  : Location 1
CTRY.          USA                                     : Country
STAT.          LOUISIANA                               : State
CNTY.          CALCASIEU                               : County
UWI .          170192138600                            : UWI Number
API .          170192138600                            : API Number
SECT.          29                                      : Section
TOWN.          9S                                      : Township
RNGE.          10W                                     : Range
PDAT.          BHF                                     : Perm Datum
EPD .          12.5                                    : Elevation
LMF .          RKB                                     : Log Measured From
DMF .          RKB                                     : Drill Measured From
APD .          15.5                                    : Above Perm Datum
EKB .          28                                      : Elev-Kelly Bushing.
EDF .          27                                      : Elev-Drill Floor
EGL .          12.5                                    : Elev-Ground Level
SRVC.          Petcom, Inc.                            : Service Company
DATE.          18 Oct 2018 @ 20:09                     : Date
~Parameter Information Section
RUN .          1                                       : Run #
DATE.          22 JAN 1985                             : Date log was run
TDD .          5473                                    : Depth - Driller
TDL .          5476                                    : Depth - Logger
BLI .          5472                                    : Bottom Log Interval
TLI .          1027                                    : Top Log Interval
CBD .          9 5/8" @ 1030'                          : Casing - Driller
CBL .          1027                                    : Casing - Logger
BS  .          8.5                                     : Bit Size
DFT .          LIGNOSULFATE                            : Type of Fluid In Hole
DFD .          9.6                                     : Drilling Fluid Density
DFV .          51                                      : Drilling Fluid Viscosity
DFPH.          11.0                                    : Drilling Fluid pH
DFL .          6.0                                     : Drilling Fluid Loss
MSS .          MUD PIT                                 : Source of Sample
RMS .          2.21                                    : Mud Resitivity
MST .          40                                      : Rm Temperature
RMFS.          1.66                                    : Mud Filtrate Resistivity
MFST.          40                                      : Rmf Temperature
RMCS.          3.32                                    : Mud Cake Resitivity
MCST.          40                                      : Rmc Temperature
MFSS.          CALC                                    : Source of Rmf
MCSS.          CALC                                    : Source of Rmc
RMBH.          0.792                                   : Rm at BHT
BHT .          124                                     : Bottom Hole Temperature
MRT .          124 DEGF                                : Max Recorded Temperature
RUN .          2                                       : Run #
DATE.                                                  : Date log was run
TDD .                                                  : Depth - Driller
TDL .                                                  : Depth - Logger
BLI .                                                  : Bottom Log Interval
TLI .                                                  : Top Log Interval
CBD .                                                  : Casing - Driller
CBL .                                                  : Casing - Logger
BS  .                                                  : Bit Size
DFT .                                                  : Type of Fluid In Hole
DFD .                                                  : Drilling Fluid Density
DFV .                                                  : Drilling Fluid Viscosity
DFPH.                                                  : Drilling Fluid pH
DFL .                                                  : Drilling Fluid Loss
MSS .                                                  : Source of Sample
RMS .                                                  : Mud Resitivity
MST .                                                  : Rm Temperature
RMFS.                                                  : Mud Filtrate Resistivity
MFST.                                                  : Rmf Temperature
RMCS.                                                  : Mud Cake Resitivity
MCST.                                                  : Rmc Temperature
MFSS.                                                  : Source of Rmf
MCSS.                                                  : Source of Rmc
RMBH.                                                  : Rm at BHT
BHT .                                                  : Bottom Hole Temperature
MRT .                                                  : Max Recorded Temperature
RUN .          3                                       : Run #
DATE.                                                  : Date log was run
TDD .                                                  : Depth - Driller
TDL .                                                  : Depth - Logger
BLI .                                                  : Bottom Log Interval
TLI .                                                  : Top Log Interval
CBD .                                                  : Casing - Driller
CBL .                                                  : Casing - Logger
BS  .                                                  : Bit Size
DFT .                                                  : Type of Fluid In Hole
DFD .                                                  : Drilling Fluid Density
DFV .                                                  : Drilling Fluid Viscosity
DFPH.                                                  : Drilling Fluid pH
DFL .                                                  : Drilling Fluid Loss
MSS .                                                  : Source of Sample
RMS .                                                  : Mud Resitivity
MST .                                                  : Rm Temperature
RMFS.                                                  : Mud Filtrate Resistivity
MFST.                                                  : Rmf Temperature
RMCS.                                                  : Mud Cake Resitivity
MCST.                                                  : Rmc Temperature
MFSS.                                                  : Source of Rmf
MCSS.                                                  : Source of Rmc
RMBH.                                                  : Rm at BHT
BHT .                                                  : Bottom Hole Temperature
MRT .                                                  : Max Recorded Temperature
~Curve Information Section
DEPTH.FT                                               : 
GR.GAPI                                                : 
SP.mV                                                  : 
RES_D.OHMM                                             : 
RES_S.OHMM                                             : 
CALI.IN                                                : 
NPHI_SS.DEC                                            : 
PHIT.DEC                                               : 
PHIE.DEC                                               : 
SW.DEC                                                 : 
BVW.DEC                                                : 
SHALE.DEC                                              : 
SAND.DEC                                               : 
LS.DEC                                                 : 
RHOB.G/CC                                              : 
RHOB_ORG.G/CC                                          : 
DEN_FLAG.                                              : 
VP.FT/S                                                : 
VP_ORG.FT/S                                            : 
VP_FLAG.                                               : 
VS.FT/S                                                : 
VS_FLAG.                                               : 
AI.                                                    : 
AI_ORG.                                                : 
PR.                                                    : 
PRFRAME.                                               : 
~ASCII Log Data Section
# ...
      2174.0     33.7460    -75.0570      0.5850      1.0330     13.0350   -999.0000      0.3648      0.2779      1.0000      0.2779      0.2381      0.7619      0.0000      2.0497   -999.0000      1.0000   6919.3140   6919.3140      0.0000   2658.5112      1.0000  14182.2295   -999.0000      0.4134      0.1828
      2174.5     29.5270    -77.1700      0.5600      1.0270     13.3230   -999.0000      0.3726      0.3079      1.0000      0.3079      0.1737      0.8263      0.0000      2.0362   -999.0000      1.0000   6658.0107   6658.0107      0.0000   2499.1079      1.0000  13557.2627   -999.0000      0.4180      0.1686
      2175.0     27.6690    -78.1660      0.5360      1.0110     13.4980   -999.0000      0.3773      0.3298      1.0000      0.3298      0.1258      0.8742      0.0000      2.0282   -999.0000      1.0000   6612.3135   6612.3135      0.0000   2396.9280      1.0000  13411.3125   -999.0000      0.4244      0.1579
      2175.5     26.6020    -78.6490      0.5190      0.9730     13.3670   -999.0000      0.3822      0.3454      1.0000      0.3454      0.0962      0.9038      0.0000      2.0200   -999.0000      1.0000   6520.8335   6538.0415      1.0000   2351.0679      1.0000  13172.1035   -999.0000      0.4253      0.1514
      2176.0     26.7160    -79.1260      0.5010      1.0010     12.9860   -999.0000      0.3873      0.3495      1.0000      0.3495      0.0976      0.9024      0.0000      2.0115   -999.0000      1.0000   6479.1665   6301.5942      1.0000   2300.8992      1.0000  13032.8828   -999.0000      0.4278      0.1517
      2176.5     27.2660    -79.6150      0.4850      1.0970     12.6520   -999.0000      0.3898      0.3450      1.0000      0.3450      0.1149      0.8851      0.0000      2.0076   -999.0000      1.0000   6416.6665   6012.1445      1.0000   2274.1882      1.0000  12881.7998   -999.0000      0.4282      0.1555
      2177.0     27.8320    -80.7240      0.4680      1.2700     12.5400   -999.0000      0.3897      0.3315      1.0000      0.3315      0.1494      0.8506      0.0000      2.0079   -999.0000      1.0000   6416.6665   5925.0132      1.0000   2258.1616      1.0000  12884.0518   -999.0000      0.4293      0.1632
      2177.5     26.9110    -81.8440      0.4530      1.5060     12.7670   -999.0000      0.3891      0.3220      1.0000      0.3220      0.1724      0.8276      0.0000      2.0091   -999.0000      1.0000   6416.6665   5938.2773      1.0000   2279.5305      1.0000  12891.6953   -999.0000      0.4278      0.1683
      2178.0     25.6490    -82.9650      0.4380      1.4760     13.1370   -999.0000      0.3875      0.3296      1.0000      0.3296      0.1494      0.8506      0.0000      2.0115   -999.0000      1.0000   6500.0000   6238.4980      1.0000   2322.2681      1.0000  13074.5000   -999.0000      0.4268      0.1632
      2178.5     24.8690    -84.0870      0.4240      1.4320     13.4910   -999.0000      0.3855      0.3677      1.0000      0.3677      0.0460      0.9540      0.0000      2.0143   -999.0000      1.0000   6583.3335   6532.7881      1.0000   2391.7163      1.0000  13260.5029   -999.0000      0.4240      0.1402
      2179.0     25.3970    -85.2300      0.4150      1.4000     13.5390   -999.0000      0.3831      0.3434      1.0000      0.3434      0.1034      0.8966      0.0000      2.0186   -999.0000      1.0000   6687.5000   6685.0728      1.0000   2446.1462      1.0000  13499.1709   -999.0000      0.4228      0.1530
      2179.5     25.8790    -86.0320      0.4070      1.4000     13.4410   -999.0000      0.3800      0.3407      1.0000      0.3407      0.1034      0.8966      0.0000      2.0236   -999.0000      1.0000   6712.2651   6712.2651      0.0000   2480.6990      1.0000  13583.0400   -999.0000      0.4209      0.1530
      2180.0     23.9350    -86.7870      0.4020      1.3860     13.2550   -999.0000      0.3770      0.3510      1.0000      0.3510      0.0690      0.9310      0.0000      2.0283   -999.0000      1.0000   6718.0820   6718.0820      0.0000   2486.7488      1.0000  13626.4707   -999.0000      0.4206      0.1453
      2180.5     22.8110    -87.5400      0.3980      1.2770     13.0950   -999.0000      0.3750      0.3534      1.0000      0.3534      0.0575      0.9425      0.0000      2.0317   -999.0000      1.0000   6711.0938   6711.0938      0.0000   2502.8293      1.0000  13634.8389   -999.0000      0.4192      0.1428
      2181.0     24.1360    -88.3180      0.3970      1.2360     13.1680   -999.0000      0.3736      0.3479      1.0000      0.3479      0.0690      0.9310      0.0000      2.0339   -999.0000      1.0000   6774.9756   6774.9756      0.0000   2533.5383      1.0000  13779.6904   -999.0000      0.4187      0.1453
      2181.5     26.5580    -88.3430      0.3960      1.1950     13.3640   -999.0000      0.3730      0.3130      1.0000      0.3130      0.1609      0.8391      0.0000      2.0356   -999.0000      1.0000   6837.8408   6837.8408      0.0000   2558.6609      1.0000  13918.8428   -999.0000      0.4186      0.1657
      2182.0     28.9630    -88.3430      0.3970      1.1290     13.5590   -999.0000      0.3721      0.2866      1.0000      0.2866      0.2299      0.7701      0.0000      2.0375   -999.0000      1.0000   6809.0664   6809.0664      0.0000   2560.1807      1.0000  13873.2412   -999.0000      0.4177      0.1810
      2182.5     30.8780    -88.4440      0.3980      1.0780     13.6260   -999.0000      0.3712      0.2816      1.0000      0.2816      0.2414      0.7586      0.0000      2.0391   -999.0000      1.0000   6780.9019   6780.9019      0.0000   2542.8608      1.0000  13826.7441   -999.0000      0.4182      0.1836
      2183.0     30.1140    -88.5680      0.3980      1.1010     13.5750   -999.0000      0.3707      0.2898      1.0000      0.2898      0.2184      0.7816      0.0000      2.0396   -999.0000      1.0000   6770.2974   6770.2974      0.0000   2547.7131      1.0000  13808.9912   -999.0000      0.4175      0.1785
      2183.5     27.7980    -88.2580      0.3980      1.1250     13.4040   -999.0000      0.3714      0.3159      1.0000      0.3159      0.1494      0.8506      0.0000      2.0381   -999.0000      1.0000   6827.9897   6827.9897      0.0000   2571.8975      1.0000  13916.0137   -999.0000      0.4173      0.1632
      2184.0     25.4070    -87.7270      0.3950      1.1180     13.2240   -999.0000      0.3729      0.3515      1.0000      0.3515      0.0575      0.9425      0.0000      2.0351   -999.0000      1.0000   6875.2148   6875.2148      0.0000   2593.6885      1.0000  13991.5137   -999.0000      0.4170      0.1428
      2184.5     24.8650    -87.1960      0.3880      1.0530     13.0410   -999.0000      0.3744      0.3529      1.0000      0.3529      0.0575      0.9425      0.0000      2.0325   -999.0000      1.0000   6855.2783   6855.2783      0.0000   2576.1487      1.0000  13933.5283   -999.0000      0.4178      0.1428
      2185.0     25.7370    -86.6670      0.3810      0.9530     13.1590   -999.0000      0.3755      0.3323      1.0000      0.3323      0.1149      0.8851      0.0000      2.0311   -999.0000      1.0000   6759.5884   6759.5884      0.0000   2516.6531      1.0000  13729.6807   -999.0000      0.4195      0.1555
      2185.5     27.1190    -86.1370      0.3750      0.8100     13.5210   -999.0000      0.3759      0.3068      1.0000      0.3068      0.1839      0.8161      0.0000      2.0309   -999.0000      1.0000   6643.1943   6643.1943      0.0000   2446.7944      1.0000  13491.3447   -999.0000      0.4215      0.1708
      2186.0     28.5000    -85.6080      0.3680      0.6800     13.8610   -999.0000      0.3761      0.3026      1.0000      0.3026      0.1954      0.8046      0.0000      2.0307   -999.0000      1.0000   6582.8447   6582.8447      0.0000   2404.5122      1.0000  13367.6865   -999.0000      0.4230      0.1734
      2186.5     29.4670    -85.2250      0.3620      0.5820     13.9160   -999.0000      0.3766      0.2987      1.0000      0.2987      0.2069      0.7931      0.0000      2.0299   -999.0000      1.0000   6594.6968   6594.6968      0.0000   2409.7793      1.0000  13386.4873   -999.0000      0.4229      0.1759
