~Version Information Section
VERS.          2.0                                     : CWLS LOG ASCII Standard
WRAP.          NO                                      : One line per depth step
~Well Information Section
STRT.FT        900.0                                   : Start Depth
STOP.FT        5500.0                                  : Stop Depth
STEP.FT        0.5                                     : Step
NULL.          -999.0000                               : Null Value
COMP.          UNION TEXAS PETROLEUM CORP              : Company
WELL.          FEE #989                                : Well
FLD .          SULPHUR MINES                           : Field
LOC .                                                  : Location
LOC1.                                                  : Location 1
CTRY.          USA                                     : Country
STAT.          LOUISIANA                               : State
CNTY.          CALCASIEU                               : County
UWI .          170192138600                            : UWI Number
API .          170192138600                            : API Number
SECT.          29                                      : Section
TOWN.          9S                                      : Township
RNGE.          10W                                     : Range
PDAT.          BHF                                     : Perm Datum
EPD .          12.5                                    : Elevation
LMF .          RKB                                     : Log Measured From
DMF .          RKB                                     : Drill Measured From
APD .          15.5                                    : Above Perm Datum
EKB .          28                                      : Elev-Kelly Bushing.
EDF .          27                                      : Elev-Drill Floor
EGL .          12.5                                    : Elev-Ground Level
SRVC.          Petcom, Inc.                            : Service Company
DATE.          18 Oct 2018 @ 20:09                     : Date
~Parameter Information Section
RUN .          1                                       : Run #
DATE.          22 JAN 1985                             : Date log was run
TDD .          5473                                    : Depth - Driller
TDL .          5476                                    : Depth - Logger
BLI .          5472                                    : Bottom Log Interval
TLI .          1027                                    : Top Log Interval
CBD .          9 5/8" @ 1030'                          : Casing - Driller
CBL .          1027                                    : Casing - Logger
BS  .          8.5                                     : Bit Size
DFT .          LIGNOSULFATE                            : Type of Fluid In Hole
DFD .          9.6                                     : Drilling Fluid Density
DFV .          51                                      : Drilling Fluid Viscosity
DFPH.          11.0                                    : Drilling Fluid pH
DFL .          6.0                                     : Drilling Fluid Loss
MSS .          MUD PIT                                 : Source of Sample
RMS .          2.21                                    : Mud Resitivity
MST .          40                                      : Rm Temperature
RMFS.          1.66                                    : Mud Filtrate Resistivity
MFST.          40                                      : Rmf Temperature
RMCS.          3.32                                    : Mud Cake Resitivity
MCST.          40                                      : Rmc Temperature
MFSS.          CALC                                    : Source of Rmf
MCSS.          CALC                                    : Source of Rmc
RMBH.          0.792                                   : Rm at BHT
BHT .          124                                     : Bottom Hole Temperature
MRT .          124 DEGF                                : Max Recorded Temperature
RUN .          2                                       : Run #
DATE.                                                  : Date log was run
TDD .                                                  : Depth - Driller
TDL .                                                  : Depth - Logger
BLI .                                                  : Bottom Log Interval
TLI .                                                  : Top Log Interval
CBD .                                                  : Casing - Driller
CBL .                                                  : Casing - Logger
BS  .                                                  : Bit Size
DFT .                                                  : Type of Fluid In Hole
DFD .                                                  : Drilling Fluid Density
DFV .                                                  : Drilling Fluid Viscosity
DFPH.                                                  : Drilling Fluid pH
DFL .                                                  : Drilling Fluid Loss
MSS .                                                  : Source of Sample
RMS .                                                  : Mud Resitivity
MST .                                                  : Rm Temperature
RMFS.                                                  : Mud Filtrate Resistivity
MFST.                                                  : Rmf Temperature
RMCS.                                                  : Mud Cake Resitivity
MCST.                                                  : Rmc Temperature
MFSS.                                                  : Source of Rmf
MCSS.                                                  : Source of Rmc
RMBH.                                                  : Rm at BHT
BHT .                                                  : Bottom Hole Temperature
MRT .                                                  : Max Recorded Temperature
RUN .          3                                       : Run #
DATE.                                                  : Date log was run
TDD .                                                  : Depth - Driller
TDL .                                                  : Depth - Logger
BLI .                                                  : Bottom Log Interval
TLI .                                                  : Top Log Interval
CBD .                                                  : Casing - Driller
CBL .                                                  : Casing - Logger
BS  .                                                  : Bit Size
DFT .                                                  : Type of Fluid In Hole
DFD .                                                  : Drilling Fluid Density
DFV .                                                  : Drilling Fluid Viscosity
DFPH.                                                  : Drilling Fluid pH
DFL .                                                  : Drilling Fluid Loss
MSS .                                                  : Source of Sample
RMS .                                                  : Mud Resitivity
MST .                                                  : Rm Temperature
RMFS.                                                  : Mud Filtrate Resistivity
MFST.                                                  : Rmf Temperature
RMCS.                                                  : Mud Cake Resitivity
MCST.                                                  : Rmc Temperature
MFSS.                                                  : Source of Rmf
MCSS.                                                  : Source of Rmc
RMBH.                                                  : Rm at BHT
BHT .                                                  : Bottom Hole Temperature
MRT .                                                  : Max Recorded Temperature
~Curve Information Section
DEPTH.FT                                               : 
GR.GAPI                                                : 
SP.mV                                                  : 
RES_D.OHMM                                             : 
RES_S.OHMM                                             : 
CALI.IN                                                : 
NPHI_SS.DEC                                            : 
PHIT.DEC                                               : 
PHIE.DEC                                               : 
SW.DEC                                                 : 
BVW.DEC                                                : 
SHALE.DEC                                              : 
SAND.DEC                                               : 
LS.DEC                                                 : 
RHOB.G/CC                                              : 
RHOB_ORG.G/CC                                          : 
DEN_FLAG.                                              : 
VP.FT/S                                                : 
VP_ORG.FT/S                                            : 
VP_FLAG.                                               : 
VS.FT/S                                                : 
VS_FLAG.                                               : 
AI.                                                    : 
AI_ORG.                                                : 
PR.                                                    : 
PRFRAME.                                               : 
~ASCII Log Data Section
# ...
      1589.0     42.4900    -49.4660      0.6230      1.5710     11.8040   -999.0000      0.3830      0.2005      1.0000      0.2005      0.4765      0.5235      0.0000      2.0211   -999.0000      1.0000   6381.7427   6381.7427      0.0000   2247.1853      1.0000  12897.9395   -999.0000      0.4292      0.2357
      1589.5     43.2500    -49.2300      0.6290      1.5340     11.9350   -999.0000      0.3767      0.1915      1.0000      0.1915      0.4916      0.5084      0.0000      2.0314   -999.0000      1.0000   6445.9570   6445.9570      0.0000   2288.9578      1.0000  13094.6123   -999.0000      0.4279      0.2391
      1590.0     45.9770    -49.3640      0.6350      1.4900     11.8450   -999.0000      0.3750      0.1708      1.0000      0.1708      0.5446      0.4554      0.0000      2.0347   -999.0000      1.0000   6436.3730   6436.3730      0.0000   2325.0774      1.0000  13096.2949   -999.0000      0.4250      0.2508
      1590.5     49.1060    -49.8900      0.6410      1.4150     11.7570   -999.0000      0.3685      0.1306      1.0000      0.1306      0.6456      0.3544      0.0000      2.0461   -999.0000      1.0000   6415.8906   6415.8906      0.0000   2349.9407      1.0000  13127.3027   -999.0000      0.4225      0.2733
      1591.0     52.1670    -51.4450      0.6480      1.1660     11.6700   -999.0000      0.3632      0.0934      1.0000      0.0934      0.7428      0.2572      0.0000      2.0554   -999.0000      1.0000   6436.9116   6436.9116      0.0000   2366.8428      1.0000  13230.3125   -999.0000      0.4218      0.2949
      1591.5     51.8110    -52.9870      0.6440      0.9730     11.6800   -999.0000      0.3593      0.0973      1.0000      0.0973      0.7292      0.2708      0.0000      2.0618   -999.0000      1.0000   6504.5723   6504.5723      0.0000   2405.9570      1.0000  13410.8760   -999.0000      0.4207      0.2918
      1592.0     50.6180    -54.1870      0.6400      0.9730     11.7210   -999.0000      0.3547      0.1125      1.0000      0.1125      0.6828      0.3172      0.0000      2.0692   -999.0000      1.0000   6573.7144   6573.7144      0.0000   2441.1587      1.0000  13602.2363   -999.0000      0.4200      0.2815
      1592.5     49.4200    -53.6950      0.6360      1.1210     11.7620   -999.0000      0.3478      0.1244      1.0000      0.1244      0.6424      0.3576      0.0000      2.0803   -999.0000      1.0000   6578.9473   6578.9473      0.0000   2435.5371      1.0000  13686.0596   -999.0000      0.4206      0.2726
      1593.0     48.7780    -51.3370      0.6320      1.2180     11.7870   -999.0000      0.3457      0.1284      1.0000      0.1284      0.6286      0.3714      0.0000      2.0837   -999.0000      1.0000   6481.8896   6481.8896      0.0000   2381.7566      1.0000  13506.1895   -999.0000      0.4220      0.2695
      1593.5     49.3360    -47.8040      0.6420      1.2060     11.8030   -999.0000      0.3445      0.1166      1.0000      0.1166      0.6615      0.3385      0.0000      2.0859   -999.0000      1.0000   6356.7134   6356.7134      0.0000   2316.2139      1.0000  13259.2842   -999.0000      0.4235      0.2768
      1594.0     50.8910    -44.2690      0.6550      1.0850     11.8110   -999.0000      0.3447      0.0932      1.0000      0.0932      0.7296      0.2704      0.0000      2.0859   -999.0000      1.0000   6314.4868   6314.4868      0.0000   2345.5090      1.0000  13171.6611   -999.0000      0.4200      0.2919
      1594.5     50.9020    -40.7390      0.6740      1.0270     11.9710   -999.0000      0.3430      0.0881      1.0000      0.0881      0.7432      0.2568      0.0000      2.0890   -999.0000      1.0000   6600.0938   6600.0938      0.0000   2429.9397      1.0000  13787.4160   -999.0000      0.4216      0.2949
      1595.0     48.5460    -37.0260      0.6950      1.1740     12.2580   -999.0000      0.3417      0.1114      1.0000      0.1114      0.6741      0.3259      0.0000      2.0906   -999.0000      1.0000   6697.3857   6697.3857      0.0000   2554.9653      1.0000  14001.3164   -999.0000      0.4148      0.2796
      1595.5     46.2390    -32.2660      0.7160      1.3420     12.5980   -999.0000      0.3406      0.1315      1.0000      0.1315      0.6140      0.3860      0.0000      2.0920   -999.0000      1.0000   6818.9570   6818.9570      0.0000   2582.0957      1.0000  14265.1250   -999.0000      0.4163      0.2663
      1596.0     46.9680    -27.4400      0.7400      1.2770     13.0550   -999.0000      0.3398      0.1175      1.0000      0.1175      0.6544      0.3456      0.0000      2.0936   -999.0000      1.0000   6709.5630   6709.5630      0.0000   2564.3889      1.0000  14047.2129   -999.0000      0.4145      0.2752
      1596.5     48.9510    -22.6140      0.7660      1.0660     13.7630   -999.0000      0.3405      0.0877      1.0000      0.0877      0.7424      0.2576      0.0000      2.0931   -999.0000      1.0000   6625.9395   6625.9395      0.0000   2436.9663      1.0000  13868.8320   -999.0000      0.4218      0.2948
      1597.0     50.9500    -17.9680      0.7940      0.9840     14.2240   -999.0000      0.3428      0.0582      1.0000      0.0582      0.8303      0.1697      0.0000      2.0899   -999.0000      1.0000   6513.3853   6513.3853      0.0000   2310.4519      1.0000  13612.4111   -999.0000      0.4280      0.3143
      1597.5     52.9510    -15.5290      0.8240      0.9920     13.6790   -999.0000      0.3436      0.0366      1.0000      0.0366      0.8934      0.1066      0.0000      2.0890   -999.0000      1.0000   6404.6729   6404.6729      0.0000   2179.3286      1.0000  13379.4023   -999.0000      0.4345      0.3283
      1598.0     54.9510    -14.3660      0.8540      1.0060     12.6150   -999.0000      0.3446      0.0213      1.0000      0.0213      0.9381      0.0619      0.0000      2.0876   -999.0000      1.0000   6299.5698   6299.5698      0.0000   2121.9885      1.0000  13150.8740   -999.0000      0.4360      0.3382
      1598.5     56.9510    -13.3910      0.8820      1.0090     11.5540   -999.0000      0.3443      0.0062      1.0000      0.0062      0.9821      0.0179      0.0000      2.0883   -999.0000      1.0000   6275.4941   6275.4941      0.0000   2107.0176      1.0000  13105.0713   -999.0000      0.4365      0.3480
      1599.0     58.9520    -13.1680      0.9000      0.9890     11.0620   -999.0000      0.3445      0.0000      1.0000      0.0000      1.0000      0.0000      0.0000      2.0882   -999.0000      1.0000   6342.5620   6342.5620      0.0000   2137.4600      1.0000  13244.3613   -999.0000      0.4359      0.3519
      1599.5     60.9580    -12.9590      0.9180      0.9780     10.7530   -999.0000      0.3437      0.0000      1.0000      0.0000      1.0000      0.0000      0.0000      2.0894   -999.0000      1.0000   6425.8677   6425.8677      0.0000   2191.2395      1.0000  13426.3447   -999.0000      0.4342      0.3519
      1600.0     62.2790    -12.9880      0.9370      1.0780     10.5110   -999.0000      0.3424      0.0000      1.0000      0.0000      1.0000      0.0000      0.0000      2.0916   -999.0000      1.0000   6498.6128   6498.6128      0.0000   2245.6443      1.0000  13592.6064   -999.0000      0.4322      0.3519
      1600.5     61.0620    -13.2810      0.9560      1.0430     10.4220   -999.0000      0.3405      0.0000      1.0000      0.0000      1.0000      0.0000      0.0000      2.0947   -999.0000      1.0000   6568.2744   6568.2744      0.0000   2291.4595      1.0000  13758.6572   -999.0000      0.4307      0.3519
      1601.0     59.7240    -13.5750      0.9710      1.0330     10.4020   -999.0000      0.3387      0.0000      1.0000      0.0000      1.0000      0.0000      0.0000      2.0977   -999.0000      1.0000   6615.9448   6615.9448      0.0000   2319.6458      1.0000  13878.4512   -999.0000      0.4299      0.3519
      1601.5     59.6080    -13.8590      0.9850      1.0520     10.3830   -999.0000      0.3371      0.0000      1.0000      0.0000      1.0000      0.0000      0.0000      2.1004   -999.0000      1.0000   6615.5508   6615.5508      0.0000   2322.9802      1.0000  13895.0205   -999.0000      0.4297      0.3519
