~Version Information Section
VERS.          2.0                                     : CWLS LOG ASCII Standard
WRAP.          NO                                      : One line per depth step
~Well Information Section
STRT.FT        900.0                                   : Start Depth
STOP.FT        5500.0                                  : Stop Depth
STEP.FT        0.5                                     : Step
NULL.          -999.0000                               : Null Value
COMP.          UNION TEXAS PETROLEUM CORP              : Company
WELL.          FEE #989                                : Well
FLD .          SULPHUR MINES                           : Field
LOC .                                                  : Location
LOC1.                                                  : Location 1
CTRY.          USA                                     : Country
STAT.          LOUISIANA                               : State
CNTY.          CALCASIEU                               : County
UWI .          170192138600                            : UWI Number
API .          170192138600                            : API Number
SECT.          29                                      : Section
TOWN.          9S                                      : Township
RNGE.          10W                                     : Range
PDAT.          BHF                                     : Perm Datum
EPD .          12.5                                    : Elevation
LMF .          RKB                                     : Log Measured From
DMF .          RKB                                     : Drill Measured From
APD .          15.5                                    : Above Perm Datum
EKB .          28                                      : Elev-Kelly Bushing.
EDF .          27                                      : Elev-Drill Floor
EGL .          12.5                                    : Elev-Ground Level
SRVC.          Petcom, Inc.                            : Service Company
DATE.          18 Oct 2018 @ 20:09                     : Date
~Parameter Information Section
RUN .          1                                       : Run #
DATE.          22 JAN 1985                             : Date log was run
TDD .          5473                                    : Depth - Driller
TDL .          5476                                    : Depth - Logger
BLI .          5472                                    : Bottom Log Interval
TLI .          1027                                    : Top Log Interval
CBD .          9 5/8" @ 1030'                          : Casing - Driller
CBL .          1027                                    : Casing - Logger
BS  .          8.5                                     : Bit Size
DFT .          LIGNOSULFATE                            : Type of Fluid In Hole
DFD .          9.6                                     : Drilling Fluid Density
DFV .          51                                      : Drilling Fluid Viscosity
DFPH.          11.0                                    : Drilling Fluid pH
DFL .          6.0                                     : Drilling Fluid Loss
MSS .          MUD PIT                                 : Source of Sample
RMS .          2.21                                    : Mud Resitivity
MST .          40                                      : Rm Temperature
RMFS.          1.66                                    : Mud Filtrate Resistivity
MFST.          40                                      : Rmf Temperature
RMCS.          3.32                                    : Mud Cake Resitivity
MCST.          40                                      : Rmc Temperature
MFSS.          CALC                                    : Source of Rmf
MCSS.          CALC                                    : Source of Rmc
RMBH.          0.792                                   : Rm at BHT
BHT .          124                                     : Bottom Hole Temperature
MRT .          124 DEGF                                : Max Recorded Temperature
RUN .          2                                       : Run #
DATE.                                                  : Date log was run
TDD .                                                  : Depth - Driller
TDL .                                                  : Depth - Logger
BLI .                                                  : Bottom Log Interval
TLI .                                                  : Top Log Interval
CBD .                                                  : Casing - Driller
CBL .                                                  : Casing - Logger
BS  .                                                  : Bit Size
DFT .                                                  : Type of Fluid In Hole
DFD .                                                  : Drilling Fluid Density
DFV .                                                  : Drilling Fluid Viscosity
DFPH.                                                  : Drilling Fluid pH
DFL .                                                  : Drilling Fluid Loss
MSS .                                                  : Source of Sample
RMS .                                                  : Mud Resitivity
MST .                                                  : Rm Temperature
RMFS.                                                  : Mud Filtrate Resistivity
MFST.                                                  : Rmf Temperature
RMCS.                                                  : Mud Cake Resitivity
MCST.                                                  : Rmc Temperature
MFSS.                                                  : Source of Rmf
MCSS.                                                  : Source of Rmc
RMBH.                                                  : Rm at BHT
BHT .                                                  : Bottom Hole Temperature
MRT .                                                  : Max Recorded Temperature
RUN .          3                                       : Run #
DATE.                                                  : Date log was run
TDD .                                                  : Depth - Driller
TDL .                                                  : Depth - Logger
BLI .                                                  : Bottom Log Interval
TLI .                                                  : Top Log Interval
CBD .                                                  : Casing - Driller
CBL .                                                  : Casing - Logger
BS  .                                                  : Bit Size
DFT .                                                  : Type of Fluid In Hole
DFD .                                                  : Drilling Fluid Density
DFV .                                                  : Drilling Fluid Viscosity
DFPH.                                                  : Drilling Fluid pH
DFL .                                                  : Drilling Fluid Loss
MSS .                                                  : Source of Sample
RMS .                                                  : Mud Resitivity
MST .                                                  : Rm Temperature
RMFS.                                                  : Mud Filtrate Resistivity
MFST.                                                  : Rmf Temperature
RMCS.                                                  : Mud Cake Resitivity
MCST.                                                  : Rmc Temperature
MFSS.                                                  : Source of Rmf
MCSS.                                                  : Source of Rmc
RMBH.                                                  : Rm at BHT
BHT .                                                  : Bottom Hole Temperature
MRT .                                                  : Max Recorded Temperature
~Curve Information Section
DEPTH.FT                                               : 
GR.GAPI                                                : 
SP.mV                                                  : 
RES_D.OHMM                                             : 
RES_S.OHMM                                             : 
CALI.IN                                                : 
NPHI_SS.DEC                                            : 
PHIT.DEC                                               : 
PHIE.DEC                                               : 
SW.DEC                                                 : 
BVW.DEC                                                : 
SHALE.DEC                                              : 
SAND.DEC                                               : 
LS.DEC                                                 : 
RHOB.G/CC                                              : 
RHOB_ORG.G/CC                                          : 
DEN_FLAG.                                              : 
VP.FT/S                                                : 
VP_ORG.FT/S                                            : 
VP_FLAG.                                               : 
VS.FT/S                                                : 
VS_FLAG.                                               : 
AI.                                                    : 
AI_ORG.                                                : 
PR.                                                    : 
PRFRAME.                                               : 
~ASCII Log Data Section
# ...
      3630.0     35.6930    -97.5310      0.3140      0.7960     13.7870   -999.0000      0.3689      0.3253      1.0000      0.3253      0.1183      0.8817      0.0000      2.0420   -999.0000      1.0000   6687.2188   6687.2188      0.0000   2520.5598      1.0000  13655.1660   -999.0000      0.4172      0.1563
      3630.5     36.8360    -97.5560      0.3140      0.7180     13.1590   -999.0000      0.3635      0.3173      1.0000      0.3173      0.1272      0.8728      0.0000      2.0510   -999.0000      1.0000   6903.5508   6903.5508      0.0000   2632.1074      1.0000  14159.1807   -999.0000      0.4150      0.1582
      3631.0     37.8330    -97.3670      0.3140      0.7430     12.7910   -999.0000      0.3585      0.3098      1.0000      0.3098      0.1359      0.8641      0.0000      2.0593   -999.0000      1.0000   7117.5391   7117.5391      0.0000   2779.4968      1.0000  14657.0254   -999.0000      0.4100      0.1602
      3631.5     37.5170    -97.1770      0.3140      0.7940     12.9070   -999.0000      0.3556      0.3079      1.0000      0.3079      0.1340      0.8660      0.0000      2.0642   -999.0000      1.0000   7262.0059   7262.0059      0.0000   2884.2397      1.0000  14990.0068   -999.0000      0.4064      0.1597
      3632.0     37.2170    -96.4950      0.3070      0.8210     13.2620   -999.0000      0.3550      0.3074      1.0000      0.3074      0.1340      0.8660      0.0000      2.0651   -999.0000      1.0000   7312.0259   7312.0259      0.0000   2935.9634      1.0000  15100.0752   -999.0000      0.4039      0.1597
      3632.5     37.0570    -95.3510      0.3020      0.6990     13.6220   -999.0000      0.3555      0.3069      1.0000      0.3069      0.1367      0.8633      0.0000      2.0643   -999.0000      1.0000   7319.2505   7319.2505      0.0000   2920.2617      1.0000  15109.4141   -999.0000      0.4053      0.1603
      3633.0     37.0580    -94.2080      0.2970      0.6050     13.7970   -999.0000      0.3582      0.3078      1.0000      0.3078      0.1408      0.8592      0.0000      2.0598   -999.0000      1.0000   7200.7725   7200.7725      0.0000   2835.2031      1.0000  14832.2041   -999.0000      0.4083      0.1612
      3633.5     35.4730    -93.1230      0.2940      0.5560     13.8880   -999.0000      0.3616      0.3138      1.0000      0.3138      0.1322      0.8678      0.0000      2.0542   -999.0000      1.0000   6980.3159   6980.3159      0.0000   2692.1729      1.0000  14338.6719   -999.0000      0.4126      0.1593
      3634.0     33.2380    -93.1120      0.2930      0.5740     13.7800   -999.0000      0.3655      0.3233      1.0000      0.3233      0.1155      0.8845      0.0000      2.0476   -999.0000      1.0000   6761.4624   6761.4624      0.0000   2544.0964      1.0000  13844.8223   -999.0000      0.4175      0.1556
      3634.5     31.1710    -93.3790      0.2920      0.6230     13.5820   -999.0000      0.3682      0.3313      1.0000      0.3313      0.1001      0.8999      0.0000      2.0431   -999.0000      1.0000   6623.3062   6623.3062      0.0000   2426.2156      1.0000  13532.2529   -999.0000      0.4225      0.1522
      3635.0     33.1300    -93.7580      0.2910      0.6850     13.3800   -999.0000      0.3694      0.3278      1.0000      0.3278      0.1124      0.8876      0.0000      2.0412   -999.0000      1.0000   6520.6050   6520.6050      0.0000   2392.2188      1.0000  13310.1807   -999.0000      0.4222      0.1550
      3635.5     35.0850    -94.1370      0.2900      0.7860     13.5740   -999.0000      0.3682      0.3220      1.0000      0.3220      0.1256      0.8744      0.0000      2.0432   -999.0000      1.0000   6628.8823   6628.8823      0.0000   2408.6074      1.0000  13544.3867   -999.0000      0.4239      0.1579
      3636.0     35.2670    -94.1720      0.2890      0.8930     13.8790   -999.0000      0.3670      0.3205      1.0000      0.3205      0.1269      0.8731      0.0000      2.0452   -999.0000      1.0000   6687.2188   6687.2188      0.0000   2508.7246      1.0000  13676.7080   -999.0000      0.4181      0.1582
      3636.5     35.6040    -94.1720      0.2870      0.9160     14.1960   -999.0000      0.3665      0.3190      1.0000      0.3190      0.1295      0.8705      0.0000      2.0461   -999.0000      1.0000   6911.0410   6911.0410      0.0000   2641.9343      1.0000  14140.6650   -999.0000      0.4144      0.1587
      3637.0     36.2000    -94.1720      0.2850      0.8860     14.2970   -999.0000      0.3665      0.3174      1.0000      0.3174      0.1341      0.8659      0.0000      2.0461   -999.0000      1.0000   7148.3716   7148.3716      0.0000   2820.4236      1.0000  14625.9297   -999.0000      0.4078      0.1598
      3637.5     36.7990    -94.1640      0.2830      0.8130     14.3150   -999.0000      0.3665      0.3156      1.0000      0.3156      0.1389      0.8611      0.0000      2.0462   -999.0000      1.0000   7383.2891   7383.2891      0.0000   2882.9595      1.0000  15107.3779   -999.0000      0.4101      0.1608
      3638.0     37.1110    -94.4570      0.2810      0.7370     14.3330   -999.0000      0.3681      0.3164      1.0000      0.3164      0.1403      0.8597      0.0000      2.0436   -999.0000      1.0000   7154.9180   7154.9180      0.0000   2803.4277      1.0000  14621.4717   -999.0000      0.4093      0.1611
      3638.5     36.4700    -95.1980      0.2790      0.6720     14.3520   -999.0000      0.3687      0.3198      1.0000      0.3198      0.1326      0.8674      0.0000      2.0425   -999.0000      1.0000   6838.2148   6838.2148      0.0000   2607.5378      1.0000  13967.2871   -999.0000      0.4149      0.1594
      3639.0     35.3510    -96.2960      0.2770      0.7060     14.3450   -999.0000      0.3699      0.3255      1.0000      0.3255      0.1200      0.8800      0.0000      2.0404   -999.0000      1.0000   6619.3599   6619.3599      0.0000   2447.1558      1.0000  13506.1025   -999.0000      0.4208      0.1566
      3639.5     33.3880    -97.3920      0.2750      0.7820     14.1420   -999.0000      0.3720      0.3343      1.0000      0.3343      0.1015      0.8985      0.0000      2.0368   -999.0000      1.0000   6529.4614   6529.4614      0.0000   2338.6506      1.0000  13299.1689   -999.0000      0.4264      0.1525
      3640.0     32.0760    -98.5080      0.2730      0.8250     13.8540   -999.0000      0.3765      0.3433      1.0000      0.3433      0.0882      0.9118      0.0000      2.0293   -999.0000      1.0000   6415.0679   6415.0679      0.0000   2334.1348      1.0000  13018.2559   -999.0000      0.4237      0.1496
      3640.5     32.9870    -98.8470      0.2750      0.8590     13.4020   -999.0000      0.3803      0.3448      1.0000      0.3448      0.0935      0.9065      0.0000      2.0230   -999.0000      1.0000   6601.7490   6601.7490      0.0000   2384.8660      1.0000  13355.5693   -999.0000      0.4250      0.1507
      3641.0     33.2120    -98.8230      0.2760      0.9200     13.3360   -999.0000      0.3841      0.3476      1.0000      0.3476      0.0952      0.9048      0.0000      2.0168   -999.0000      1.0000   6727.3022   6727.3022      0.0000   2491.6938      1.0000  13567.3066   -999.0000      0.4205      0.1511
      3641.5     31.0380    -98.2770      0.2770      0.9900     13.6030   -999.0000      0.3867      0.3550      1.0000      0.3550      0.0819      0.9181      0.0000      2.0125   -999.0000      1.0000   6831.6743   6831.6743      0.0000   2522.2078      1.0000  13748.6338   -999.0000      0.4211      0.1482
      3642.0     28.8920    -97.9580      0.2780      1.0090     13.8640   -999.0000      0.3856      0.3619      1.0000      0.3619      0.0613      0.9387      0.0000      2.0141   -999.0000      1.0000   6720.7461   6720.7461      0.0000   2492.1726      1.0000  13536.5273   -999.0000      0.4203      0.1436
      3642.5     28.1630    -97.7100      0.2740      0.9190     13.9670   -999.0000      0.3818      0.3619      1.0000      0.3619      0.0520      0.9480      0.0000      2.0204   -999.0000      1.0000   6610.1719   6610.1719      0.0000   2360.4431      1.0000  13354.9346   -999.0000      0.4269      0.1415
