~Version Information Section
VERS.          2.0                                     : CWLS LOG ASCII Standard
WRAP.          NO                                      : One line per depth step
~Well Information Section
STRT.FT        900.0                                   : Start Depth
STOP.FT        5500.0                                  : Stop Depth
STEP.FT        0.5                                     : Step
NULL.          -999.0000                               : Null Value
COMP.          UNION TEXAS PETROLEUM CORP              : Company
WELL.          FEE #989                                : Well
FLD .          SULPHUR MINES                           : Field
LOC .                                                  : Location
LOC1.                                                  : Location 1
CTRY.          USA                                     : Country
STAT.          LOUISIANA                               : State
CNTY.          CALCASIEU                               : County
UWI .          170192138600                            : UWI Number
API .          170192138600                            : API Number
SECT.          29                                      : Section
TOWN.          9S                                      : Township
RNGE.          10W                                     : Range
PDAT.          BHF                                     : Perm Datum
EPD .          12.5                                    : Elevation
LMF .          RKB                                     : Log Measured From
DMF .          RKB                                     : Drill Measured From
APD .          15.5                                    : Above Perm Datum
EKB .          28                                      : Elev-Kelly Bushing.
EDF .          27                                      : Elev-Drill Floor
EGL .          12.5                                    : Elev-Ground Level
SRVC.          Petcom, Inc.                            : Service Company
DATE.          18 Oct 2018 @ 20:09                     : Date
~Parameter Information Section
RUN .          1                                       : Run #
DATE.          22 JAN 1985                             : Date log was run
TDD .          5473                                    : Depth - Driller
TDL .          5476                                    : Depth - Logger
BLI .          5472                                    : Bottom Log Interval
TLI .          1027                                    : Top Log Interval
CBD .          9 5/8" @ 1030'                          : Casing - Driller
CBL .          1027                                    : Casing - Logger
BS  .          8.5                                     : Bit Size
DFT .          LIGNOSULFATE                            : Type of Fluid In Hole
DFD .          9.6                                     : Drilling Fluid Density
DFV .          51                                      : Drilling Fluid Viscosity
DFPH.          11.0                                    : Drilling Fluid pH
DFL .          6.0                                     : Drilling Fluid Loss
MSS .          MUD PIT                                 : Source of Sample
RMS .          2.21                                    : Mud Resitivity
MST .          40                                      : Rm Temperature
RMFS.          1.66                                    : Mud Filtrate Resistivity
MFST.          40                                      : Rmf Temperature
RMCS.          3.32                                    : Mud Cake Resitivity
MCST.          40                                      : Rmc Temperature
MFSS.          CALC                                    : Source of Rmf
MCSS.          CALC                                    : Source of Rmc
RMBH.          0.792                                   : Rm at BHT
BHT .          124                                     : Bottom Hole Temperature
MRT .          124 DEGF                                : Max Recorded Temperature
RUN .          2                                       : Run #
DATE.                                                  : Date log was run
TDD .                                                  : Depth - Driller
TDL .                                                  : Depth - Logger
BLI .                                                  : Bottom Log Interval
TLI .                                                  : Top Log Interval
CBD .                                                  : Casing - Driller
CBL .                                                  : Casing - Logger
BS  .                                                  : Bit Size
DFT .                                                  : Type of Fluid In Hole
DFD .                                                  : Drilling Fluid Density
DFV .                                                  : Drilling Fluid Viscosity
DFPH.                                                  : Drilling Fluid pH
DFL .                                                  : Drilling Fluid Loss
MSS .                                                  : Source of Sample
RMS .                                                  : Mud Resitivity
MST .                                                  : Rm Temperature
RMFS.                                                  : Mud Filtrate Resistivity
MFST.                                                  : Rmf Temperature
RMCS.                                                  : Mud Cake Resitivity
MCST.                                                  : Rmc Temperature
MFSS.                                                  : Source of Rmf
MCSS.                                                  : Source of Rmc
RMBH.                                                  : Rm at BHT
BHT .                                                  : Bottom Hole Temperature
MRT .                                                  : Max Recorded Temperature
RUN .          3                                       : Run #
DATE.                                                  : Date log was run
TDD .                                                  : Depth - Driller
TDL .                                                  : Depth - Logger
BLI .                                                  : Bottom Log Interval
TLI .                                                  : Top Log Interval
CBD .                                                  : Casing - Driller
CBL .                                                  : Casing - Logger
BS  .                                                  : Bit Size
DFT .                                                  : Type of Fluid In Hole
DFD .                                                  : Drilling Fluid Density
DFV .                                                  : Drilling Fluid Viscosity
DFPH.                                                  : Drilling Fluid pH
DFL .                                                  : Drilling Fluid Loss
MSS .                                                  : Source of Sample
RMS .                                                  : Mud Resitivity
MST .                                                  : Rm Temperature
RMFS.                                                  : Mud Filtrate Resistivity
MFST.                                                  : Rmf Temperature
RMCS.                                                  : Mud Cake Resitivity
MCST.                                                  : Rmc Temperature
MFSS.                                                  : Source of Rmf
MCSS.                                                  : Source of Rmc
RMBH.                                                  : Rm at BHT
BHT .                                                  : Bottom Hole Temperature
MRT .                                                  : Max Recorded Temperature
~Curve Information Section
DEPTH.FT                                               : 
GR.GAPI                                                : 
SP.mV                                                  : 
RES_D.OHMM                                             : 
RES_S.OHMM                                             : 
CALI.IN                                                : 
NPHI_SS.DEC                                            : 
PHIT.DEC                                               : 
PHIE.DEC                                               : 
SW.DEC                                                 : 
BVW.DEC                                                : 
SHALE.DEC                                              : 
SAND.DEC                                               : 
LS.DEC                                                 : 
RHOB.G/CC                                              : 
RHOB_ORG.G/CC                                          : 
DEN_FLAG.                                              : 
VP.FT/S                                                : 
VP_ORG.FT/S                                            : 
VP_FLAG.                                               : 
VS.FT/S                                                : 
VS_FLAG.                                               : 
AI.                                                    : 
AI_ORG.                                                : 
PR.                                                    : 
PRFRAME.                                               : 
~ASCII Log Data Section
# ...
      2460.0     74.5030    -23.8300      1.0600      1.0030      8.9820   -999.0000      0.2876      0.0388      1.0000      0.0388      0.8653      0.1347      0.0000      2.1816   -999.0000      1.0000   7353.7524   7353.7524      0.0000   2865.7490      1.0000  16043.1875   -999.0000      0.4105      0.3220
      2460.5     76.6450    -22.0830      1.0550      0.9770      8.9820   -999.0000      0.2930      0.0304      1.0000      0.0304      0.8962      0.1038      0.0000      2.1730   -999.0000      1.0000   7231.2329   7231.2329      0.0000   2777.0569      1.0000  15713.1924   -999.0000      0.4135      0.3289
      2461.0     72.5770    -20.5640      1.0510      0.9670      8.9830   -999.0000      0.2976      0.0433      1.0000      0.0433      0.8545      0.1455      0.0000      2.1650   -999.0000      1.0000   7112.4766   7112.4766      0.0000   2695.8171      1.0000  15398.5029   -999.0000      0.4161      0.3196
      2461.5     68.8020    -19.7200      1.0460      1.0500      8.9830   -999.0000      0.3017      0.0593      1.0000      0.0593      0.8035      0.1965      0.0000      2.1578   -999.0000      1.0000   7016.7070   7016.7070      0.0000   2681.2532      1.0000  15140.8945   -999.0000      0.4145      0.3083
      2462.0     67.0410    -19.1600      1.0440      1.1430      8.9840   -999.0000      0.3053      0.0700      1.0000      0.0700      0.7707      0.2293      0.0000      2.1516   -999.0000      1.0000   6944.2031   6944.2031      0.0000   2684.5305      1.0000  14941.1699   -999.0000      0.4121      0.3010
      2462.5     67.8510    -19.0070      1.0420      1.1670      8.9840   -999.0000      0.3084      0.0656      1.0000      0.0656      0.7873      0.2127      0.0000      2.1465   -999.0000      1.0000   6900.6924   6900.6924      0.0000   2656.4749      1.0000  14812.4688   -999.0000      0.4130      0.3047
      2463.0     69.0020    -19.1220      1.0400      1.0770      8.9840   -999.0000      0.3110      0.0592      1.0000      0.0592      0.8096      0.1904      0.0000      2.1424   -999.0000      1.0000   6900.3110   6900.3110      0.0000   2593.1707      1.0000  14783.2549   -999.0000      0.4178      0.3097
      2463.5     70.1560    -19.2360      1.0380      1.0060      8.9850   -999.0000      0.3130      0.0528      1.0000      0.0528      0.8312      0.1688      0.0000      2.1392   -999.0000      1.0000   6908.1768   6908.1768      0.0000   2542.5500      1.0000  14778.2627   -999.0000      0.4217      0.3145
      2464.0     71.3120    -19.3500      1.0360      0.9380      8.9850   -999.0000      0.3145      0.0490      1.0000      0.0490      0.8442      0.1558      0.0000      2.1369   -999.0000      1.0000   6916.0596   6916.0596      0.0000   2542.1025      1.0000  14779.1631   -999.0000      0.4219      0.3173
      2464.5     72.0020    -19.4700      1.0340      0.9440      8.9860   -999.0000      0.3153      0.0468      1.0000      0.0468      0.8517      0.1483      0.0000      2.1356   -999.0000      1.0000   6898.4546   6898.4546      0.0000   2532.2114      1.0000  14732.3105   -999.0000      0.4221      0.3190
      2465.0     70.8650    -19.9500      1.0320      0.9490      8.9860   -999.0000      0.3155      0.0515      1.0000      0.0515      0.8369      0.1631      0.0000      2.1352   -999.0000      1.0000   6867.1411   6867.1411      0.0000   2512.9185      1.0000  14662.9033   -999.0000      0.4227      0.3157
      2465.5     69.7400    -20.4590      1.0300      0.9260      8.9870   -999.0000      0.3154      0.0569      1.0000      0.0569      0.8194      0.1806      0.0000      2.1353   -999.0000      1.0000   6836.0176   6836.0176      0.0000   2546.9727      1.0000  14596.8145   -999.0000      0.4194      0.3118
      2466.0     68.6670    -20.9680      1.0270      0.8880      8.9870   -999.0000      0.3151      0.0641      1.0000      0.0641      0.7965      0.2035      0.0000      2.1356   -999.0000      1.0000   6816.7256   6816.7256      0.0000   2537.7380      1.0000  14557.9326   -999.0000      0.4196      0.3068
      2466.5     71.3460    -21.4760      1.0210      0.9080      8.9870   -999.0000      0.3150      0.0513      1.0000      0.0513      0.8370      0.1630      0.0000      2.1359   -999.0000      1.0000   6828.8286   6828.8286      0.0000   2545.6606      1.0000  14585.7471   -999.0000      0.4193      0.3158
      2467.0     74.6960    -21.9860      1.0130      0.9390      8.9780   -999.0000      0.3154      0.0397      1.0000      0.0397      0.8740      0.1260      0.0000      2.1355   -999.0000      1.0000   6868.8867   6868.8867      0.0000   2513.1680      1.0000  14668.7939   -999.0000      0.4227      0.3240
      2467.5     77.8930    -22.4940      1.0050      0.9610      8.9640   -999.0000      0.3162      0.0287      1.0000      0.0287      0.9092      0.0908      0.0000      2.1346   -999.0000      1.0000   6904.9326   6904.9326      0.0000   2539.3865      1.0000  14738.9297   -999.0000      0.4218      0.3318
      2468.0     74.8250    -22.2810      0.9980      0.9290      8.9500   -999.0000      0.3170      0.0398      1.0000      0.0398      0.8744      0.1256      0.0000      2.1329   -999.0000      1.0000   6937.6035   6937.6035      0.0000   2556.7852      1.0000  14797.5273   -999.0000      0.4214      0.3241
      2468.5     71.3410    -21.7410      0.9900      0.9060      8.9360   -999.0000      0.3181      0.0521      1.0000      0.0521      0.8361      0.1639      0.0000      2.1308   -999.0000      1.0000   6941.0698   6941.0698      0.0000   2601.7141      1.0000  14790.3574   -999.0000      0.4183      0.3155
      2469.0     67.8380    -21.2020      0.9810      0.8770      8.9460   -999.0000      0.3193      0.0705      1.0000      0.0705      0.7793      0.2207      0.0000      2.1284   -999.0000      1.0000   6866.9053   6866.9053      0.0000   2617.8643      1.0000  14615.7998   -999.0000      0.4150      0.3029
      2469.5     67.2970    -20.7690      0.9690      0.8830      8.9600   -999.0000      0.3211      0.0738      1.0000      0.0738      0.7701      0.2299      0.0000      2.1254   -999.0000      1.0000   6782.5581   6782.5581      0.0000   2559.8091      1.0000  14415.4297   -999.0000      0.4170      0.3009
      2470.0     69.8690    -20.6710      0.9570      0.8770      8.9670   -999.0000      0.3231      0.0578      1.0000      0.0578      0.8212      0.1788      0.0000      2.1224   -999.0000      1.0000   6700.2129   6700.2129      0.0000   2451.1218      1.0000  14220.4326   -999.0000      0.4227      0.3122
      2470.5     72.4840    -20.5740      0.9450      0.8510      8.9730   -999.0000      0.3247      0.0476      1.0000      0.0476      0.8534      0.1466      0.0000      2.1200   -999.0000      1.0000   6640.4146   6640.4146      0.0000   2360.0190      1.0000  14077.9443   -999.0000      0.4277      0.3194
      2471.0     71.0220    -20.3860      0.9330      0.8070      8.9790   -999.0000      0.3245      0.0528      1.0000      0.0528      0.8371      0.1629      0.0000      2.1203   -999.0000      1.0000   6626.6416   6626.6416      0.0000   2338.3264      1.0000  14050.1846   -999.0000      0.4289      0.3158
      2471.5     69.4380    -19.9240      0.9220      0.7670      8.9860   -999.0000      0.3221      0.0595      1.0000      0.0595      0.8154      0.1846      0.0000      2.1240   -999.0000      1.0000   6610.2153   6610.2153      0.0000   2341.1799      1.0000  14040.3340   -999.0000      0.4283      0.3109
      2472.0     68.9470    -19.4610      0.9350      0.7140      8.9920   -999.0000      0.3178      0.0612      1.0000      0.0612      0.8073      0.1927      0.0000      2.1312   -999.0000      1.0000   6652.2534   6652.2534      0.0000   2420.9919      1.0000  14177.1865   -999.0000      0.4237      0.3092
      2472.5     68.2910    -18.9990      0.9510      0.7920      8.9980   -999.0000      0.3118      0.0636      1.0000      0.0636      0.7960      0.2040      0.0000      2.1410   -999.0000      1.0000   6737.0005   6737.0005      0.0000   2560.0325      1.0000  14423.8682   -999.0000      0.4156      0.3066
