~Version Information Section
VERS.          2.0                                     : CWLS LOG ASCII Standard
WRAP.          NO                                      : One line per depth step
~Well Information Section
STRT.FT        900.0                                   : Start Depth
STOP.FT        5500.0                                  : Stop Depth
STEP.FT        0.5                                     : Step
NULL.          -999.0000                               : Null Value
COMP.          UNION TEXAS PETROLEUM CORP              : Company
WELL.          FEE #989                                : Well
FLD .          SULPHUR MINES                           : Field
LOC .                                                  : Location
LOC1.                                                  : Location 1
CTRY.          USA                                     : Country
STAT.          LOUISIANA                               : State
CNTY.          CALCASIEU                               : County
UWI .          170192138600                            : UWI Number
API .          170192138600                            : API Number
SECT.          29                                      : Section
TOWN.          9S                                      : Township
RNGE.          10W                                     : Range
PDAT.          BHF                                     : Perm Datum
EPD .          12.5                                    : Elevation
LMF .          RKB                                     : Log Measured From
DMF .          RKB                                     : Drill Measured From
APD .          15.5                                    : Above Perm Datum
EKB .          28                                      : Elev-Kelly Bushing.
EDF .          27                                      : Elev-Drill Floor
EGL .          12.5                                    : Elev-Ground Level
SRVC.          Petcom, Inc.                            : Service Company
DATE.          18 Oct 2018 @ 20:09                     : Date
~Parameter Information Section
RUN .          1                                       : Run #
DATE.          22 JAN 1985                             : Date log was run
TDD .          5473                                    : Depth - Driller
TDL .          5476                                    : Depth - Logger
BLI .          5472                                    : Bottom Log Interval
TLI .          1027                                    : Top Log Interval
CBD .          9 5/8" @ 1030'                          : Casing - Driller
CBL .          1027                                    : Casing - Logger
BS  .          8.5                                     : Bit Size
DFT .          LIGNOSULFATE                            : Type of Fluid In Hole
DFD .          9.6                                     : Drilling Fluid Density
DFV .          51                                      : Drilling Fluid Viscosity
DFPH.          11.0                                    : Drilling Fluid pH
DFL .          6.0                                     : Drilling Fluid Loss
MSS .          MUD PIT                                 : Source of Sample
RMS .          2.21                                    : Mud Resitivity
MST .          40                                      : Rm Temperature
RMFS.          1.66                                    : Mud Filtrate Resistivity
MFST.          40                                      : Rmf Temperature
RMCS.          3.32                                    : Mud Cake Resitivity
MCST.          40                                      : Rmc Temperature
MFSS.          CALC                                    : Source of Rmf
MCSS.          CALC                                    : Source of Rmc
RMBH.          0.792                                   : Rm at BHT
BHT .          124                                     : Bottom Hole Temperature
MRT .          124 DEGF                                : Max Recorded Temperature
RUN .          2                                       : Run #
DATE.                                                  : Date log was run
TDD .                                                  : Depth - Driller
TDL .                                                  : Depth - Logger
BLI .                                                  : Bottom Log Interval
TLI .                                                  : Top Log Interval
CBD .                                                  : Casing - Driller
CBL .                                                  : Casing - Logger
BS  .                                                  : Bit Size
DFT .                                                  : Type of Fluid In Hole
DFD .                                                  : Drilling Fluid Density
DFV .                                                  : Drilling Fluid Viscosity
DFPH.                                                  : Drilling Fluid pH
DFL .                                                  : Drilling Fluid Loss
MSS .                                                  : Source of Sample
RMS .                                                  : Mud Resitivity
MST .                                                  : Rm Temperature
RMFS.                                                  : Mud Filtrate Resistivity
MFST.                                                  : Rmf Temperature
RMCS.                                                  : Mud Cake Resitivity
MCST.                                                  : Rmc Temperature
MFSS.                                                  : Source of Rmf
MCSS.                                                  : Source of Rmc
RMBH.                                                  : Rm at BHT
BHT .                                                  : Bottom Hole Temperature
MRT .                                                  : Max Recorded Temperature
RUN .          3                                       : Run #
DATE.                                                  : Date log was run
TDD .                                                  : Depth - Driller
TDL .                                                  : Depth - Logger
BLI .                                                  : Bottom Log Interval
TLI .                                                  : Top Log Interval
CBD .                                                  : Casing - Driller
CBL .                                                  : Casing - Logger
BS  .                                                  : Bit Size
DFT .                                                  : Type of Fluid In Hole
DFD .                                                  : Drilling Fluid Density
DFV .                                                  : Drilling Fluid Viscosity
DFPH.                                                  : Drilling Fluid pH
DFL .                                                  : Drilling Fluid Loss
MSS .                                                  : Source of Sample
RMS .                                                  : Mud Resitivity
MST .                                                  : Rm Temperature
RMFS.                                                  : Mud Filtrate Resistivity
MFST.                                                  : Rmf Temperature
RMCS.                                                  : Mud Cake Resitivity
MCST.                                                  : Rmc Temperature
MFSS.                                                  : Source of Rmf
MCSS.                                                  : Source of Rmc
RMBH.                                                  : Rm at BHT
BHT .                                                  : Bottom Hole Temperature
MRT .                                                  : Max Recorded Temperature
~Curve Information Section
DEPTH.FT                                               : 
GR.GAPI                                                : 
SP.mV                                                  : 
RES_D.OHMM                                             : 
RES_S.OHMM                                             : 
CALI.IN                                                : 
NPHI_SS.DEC                                            : 
PHIT.DEC                                               : 
PHIE.DEC                                               : 
SW.DEC                                                 : 
BVW.DEC                                                : 
SHALE.DEC                                              : 
SAND.DEC                                               : 
LS.DEC                                                 : 
RHOB.G/CC                                              : 
RHOB_ORG.G/CC                                          : 
DEN_FLAG.                                              : 
VP.FT/S                                                : 
VP_ORG.FT/S                                            : 
VP_FLAG.                                               : 
VS.FT/S                                                : 
VS_FLAG.                                               : 
AI.                                                    : 
AI_ORG.                                                : 
PR.                                                    : 
PRFRAME.                                               : 
~ASCII Log Data Section
# ...
      3045.0     67.2480    -45.4610      0.5560      1.0290     10.0000   -999.0000      0.3269      0.1039      1.0000      0.1039      0.6820      0.3180      0.0000      2.1153   -999.0000      1.0000   7208.3335   7548.1953      1.0000   2877.2087      1.0000  15247.5625   -999.0000      0.4052      0.2814
      3045.5     66.4330    -47.9410      0.5560      0.9780      9.9530   -999.0000      0.3292      0.1129      1.0000      0.1129      0.6572      0.3428      0.0000      2.1112   -999.0000      1.0000   6854.1665   7130.3794      1.0000   2753.2908      1.0000  14470.6836   -999.0000      0.4038      0.2758
      3046.0     64.2710    -52.0290      0.5580      0.9900      9.9060   -999.0000      0.3323      0.1329      1.0000      0.1329      0.6000      0.4000      0.0000      2.1057   -999.0000      1.0000   6854.1665   6853.3052      1.0000   2657.9431      1.0000  14432.5771   -999.0000      0.4115      0.2632
      3046.5     59.9210    -56.6810      0.5600      1.1720      9.8600   -999.0000      0.3406      0.1704      1.0000      0.1704      0.4999      0.5001      0.0000      2.0913   -999.0000      1.0000   6916.6665   6812.4995      1.0000   2677.0815      1.0000  14464.7246   -999.0000      0.4119      0.2409
      3047.0     55.7950    -63.2100      0.5620      1.5680      9.8120   -999.0000      0.3495      0.1992      1.0000      0.1992      0.4300      0.5700      0.0000      2.0761   -999.0000      1.0000   7020.8335   6957.4897      1.0000   2696.2200      1.0000  14575.7471   -999.0000      0.4135      0.2254
      3047.5     51.6590    -69.9850      0.5640      1.9790      9.7680   -999.0000      0.3581      0.2286      1.0000      0.2286      0.3617      0.6383      0.0000      2.0614   -999.0000      1.0000   7020.8335   7059.0063      1.0000   2717.5886      1.0000  14472.9551   -999.0000      0.4119      0.2103
      3048.0     48.1400    -74.0330      0.5670      2.3460      9.6860   -999.0000      0.3655      0.2516      1.0000      0.2516      0.3115      0.6885      0.0000      2.0490   -999.0000      1.0000   7000.0000   6941.5522      1.0000   2664.1670      1.0000  14342.8486   -999.0000      0.4153      0.1991
      3048.5     44.8350    -77.6980      0.5640      2.7970      9.6200   -999.0000      0.3733      0.2737      1.0000      0.2737      0.2667      0.7333      0.0000      2.0358   -999.0000      1.0000   6812.5000   6711.5894      1.0000   2573.3499      1.0000  13868.5625   -999.0000      0.4168      0.1892
      3049.0     41.5320    -80.5420      0.5590      2.5720      9.8550   -999.0000      0.3776      0.2920      1.0000      0.2920      0.2267      0.7733      0.0000      2.0284   -999.0000      1.0000   6666.6665   5877.3057      1.0000   2466.5066      1.0000  13522.4404   -999.0000      0.4207      0.1803
      3049.5     38.2320    -81.7600      0.5550      2.2360     10.2530   -999.0000      0.3827      0.3083      1.0000      0.3083      0.1942      0.8058      0.0000      2.0198   -999.0000      1.0000   6583.3335   5640.1265      1.0000   2370.3474      1.0000  13297.1426   -999.0000      0.4255      0.1731
      3050.0     38.3470    -82.2540      0.5510      2.0230     10.5370   -999.0000      0.3877      0.3127      1.0000      0.3127      0.1934      0.8066      0.0000      2.0115   -999.0000      1.0000   6437.5000   5390.6318      1.0000   2295.5571      1.0000  12949.2363   -999.0000      0.4272      0.1729
      3050.5     42.6030    -82.1860      0.5460      1.8560     10.6700   -999.0000      0.3920      0.3017      1.0000      0.3017      0.2304      0.7696      0.0000      2.0046   -999.0000      1.0000   6375.0000   5164.1689      1.0000   2236.7932      1.0000  12779.4697   -999.0000      0.4298      0.1811
      3051.0     44.8300    -81.6490      0.5640      1.6930     10.6250   -999.0000      0.3943      0.2947      1.0000      0.2947      0.2527      0.7473      0.0000      2.0009   -999.0000      1.0000   6354.1665   5111.1157      1.0000   2215.4246      1.0000  12714.0156   -999.0000      0.4308      0.1861
      3051.5     44.3370    -80.9990      0.5850      1.6590     10.5360   -999.0000      0.3937      0.2951      1.0000      0.2951      0.2504      0.7496      0.0000      2.0019   -999.0000      1.0000   6354.1665   5396.0713      1.0000   2215.4246      1.0000  12720.2842   -999.0000      0.4308      0.1856
      3052.0     43.8420    -79.5470      0.6070      1.7920     10.2850   -999.0000      0.3915      0.2932      1.0000      0.2932      0.2510      0.7490      0.0000      2.0056   -999.0000      1.0000   6375.0000   5666.6211      1.0000   2231.4509      1.0000  12785.4678   -999.0000      0.4302      0.1857
      3052.5     44.0510    -79.3820      0.6290      1.9730     10.0350   -999.0000      0.3885      0.2900      1.0000      0.2900      0.2535      0.7465      0.0000      2.0105   -999.0000      1.0000   6416.6665   5638.1226      1.0000   2268.8462      1.0000  12900.9844   -999.0000      0.4286      0.1863
      3053.0     44.7440    -81.0600      0.6480      2.4380      9.7860   -999.0000      0.3869      0.2887      1.0000      0.2887      0.2540      0.7460      0.0000      2.0131   -999.0000      1.0000   6500.0000   6352.8364      1.0000   2365.0051      1.0000  13085.1211   -999.0000      0.4237      0.1864
      3053.5     43.8490    -82.7540      0.6320      3.2310      9.5370   -999.0000      0.3861      0.2935      1.0000      0.2935      0.2397      0.7603      0.0000      2.0144   -999.0000      1.0000   6750.0000   6670.8027      1.0000   2487.8752      1.0000  13597.1064   -999.0000      0.4214      0.1832
      3054.0     42.9470    -84.4530      0.6050      4.0020      9.4700   -999.0000      0.3853      0.2984      1.0000      0.2984      0.2255      0.7745      0.0000      2.0157   -999.0000      1.0000   6895.8335   7697.7549      1.0000   2578.6921      1.0000  13899.7695   -999.0000      0.4187      0.1800
      3054.5     43.1990    -85.8480      0.5800      3.5500      9.7560   -999.0000      0.3843      0.2987      1.0000      0.2987      0.2229      0.7771      0.0000      2.0172   -999.0000      1.0000   6854.1665   7095.3691      1.0000   2535.9548      1.0000  13826.3477   -999.0000      0.4207      0.1795
      3055.0     43.6660    -86.8420      0.5290      2.4000     10.0410   -999.0000      0.3827      0.2971      1.0000      0.2971      0.2236      0.7764      0.0000      2.0200   -999.0000      1.0000   6583.3335   6568.4893      1.0000   2423.7693      1.0000  13298.3574   -999.0000      0.4216      0.1796
      3055.5     43.4230    -87.2400      0.4750      1.5070     10.2810   -999.0000      0.3805      0.2968      1.0000      0.2968      0.2200      0.7800      0.0000      2.0235   -999.0000      1.0000   6458.3335   5902.0381      1.0000   2322.2681      1.0000  13068.3633   -999.0000      0.4258      0.1788
      3056.0     42.8730    -87.1550      0.4410      1.0880     10.2710   -999.0000      0.3786      0.2971      1.0000      0.2971      0.2153      0.7847      0.0000      2.0266   -999.0000      1.0000   6458.3335   5706.7529      1.0000   2300.8994      1.0000  13088.5439   -999.0000      0.4273      0.1778
      3056.5     43.9660    -87.0710      0.4110      0.8920     10.2640   -999.0000      0.3751      0.2905      1.0000      0.2905      0.2256      0.7744      0.0000      2.0325   -999.0000      1.0000   6500.0000   5989.5308      1.0000   2348.9790      1.0000  13211.2412   -999.0000      0.4249      0.1801
      3057.0     46.3680    -87.1980      0.3830      0.8930     10.2570   -999.0000      0.3706      0.2788      1.0000      0.2788      0.2478      0.7522      0.0000      2.0401   -999.0000      1.0000   6645.8335   6447.7441      1.0000   2434.4536      1.0000  13558.0215   -999.0000      0.4225      0.1850
      3057.5     48.8190    -87.6750      0.3590      0.9430     10.2380   -999.0000      0.3654      0.2667      1.0000      0.2667      0.2702      0.7298      0.0000      2.0488   -999.0000      1.0000   6791.6665   6681.0088      1.0000   2568.0078      1.0000  13914.4736   -999.0000      0.4166      0.1900
