~Version Information Section
VERS.          2.0                                     : CWLS LOG ASCII Standard
WRAP.          NO                                      : One line per depth step
~Well Information Section
STRT.FT        900.0                                   : Start Depth
STOP.FT        5500.0                                  : Stop Depth
STEP.FT        0.5                                     : Step
NULL.          -999.0000                               : Null Value
COMP.          UNION TEXAS PETROLEUM CORP              : Company
WELL.          FEE #989                                : Well
FLD .          SULPHUR MINES                           : Field
LOC .                                                  : Location
LOC1.                                                  : Location 1
CTRY.          USA                                     : Country
STAT.          LOUISIANA                               : State
CNTY.          CALCASIEU                               : County
UWI .          170192138600                            : UWI Number
API .          170192138600                            : API Number
SECT.          29                                      : Section
TOWN.          9S                                      : Township
RNGE.          10W                                     : Range
PDAT.          BHF                                     : Perm Datum
EPD .          12.5                                    : Elevation
LMF .          RKB                                     : Log Measured From
DMF .          RKB                                     : Drill Measured From
APD .          15.5                                    : Above Perm Datum
EKB .          28                                      : Elev-Kelly Bushing.
EDF .          27                                      : Elev-Drill Floor
EGL .          12.5                                    : Elev-Ground Level
SRVC.          Petcom, Inc.                            : Service Company
DATE.          18 Oct 2018 @ 20:09                     : Date
~Parameter Information Section
RUN .          1                                       : Run #
DATE.          22 JAN 1985                             : Date log was run
TDD .          5473                                    : Depth - Driller
TDL .          5476                                    : Depth - Logger
BLI .          5472                                    : Bottom Log Interval
TLI .          1027                                    : Top Log Interval
CBD .          9 5/8" @ 1030'                          : Casing - Driller
CBL .          1027                                    : Casing - Logger
BS  .          8.5                                     : Bit Size
DFT .          LIGNOSULFATE                            : Type of Fluid In Hole
DFD .          9.6                                     : Drilling Fluid Density
DFV .          51                                      : Drilling Fluid Viscosity
DFPH.          11.0                                    : Drilling Fluid pH
DFL .          6.0                                     : Drilling Fluid Loss
MSS .          MUD PIT                                 : Source of Sample
RMS .          2.21                                    : Mud Resitivity
MST .          40                                      : Rm Temperature
RMFS.          1.66                                    : Mud Filtrate Resistivity
MFST.          40                                      : Rmf Temperature
RMCS.          3.32                                    : Mud Cake Resitivity
MCST.          40                                      : Rmc Temperature
MFSS.          CALC                                    : Source of Rmf
MCSS.          CALC                                    : Source of Rmc
RMBH.          0.792                                   : Rm at BHT
BHT .          124                                     : Bottom Hole Temperature
MRT .          124 DEGF                                : Max Recorded Temperature
RUN .          2                                       : Run #
DATE.                                                  : Date log was run
TDD .                                                  : Depth - Driller
TDL .                                                  : Depth - Logger
BLI .                                                  : Bottom Log Interval
TLI .                                                  : Top Log Interval
CBD .                                                  : Casing - Driller
CBL .                                                  : Casing - Logger
BS  .                                                  : Bit Size
DFT .                                                  : Type of Fluid In Hole
DFD .                                                  : Drilling Fluid Density
DFV .                                                  : Drilling Fluid Viscosity
DFPH.                                                  : Drilling Fluid pH
DFL .                                                  : Drilling Fluid Loss
MSS .                                                  : Source of Sample
RMS .                                                  : Mud Resitivity
MST .                                                  : Rm Temperature
RMFS.                                                  : Mud Filtrate Resistivity
MFST.                                                  : Rmf Temperature
RMCS.                                                  : Mud Cake Resitivity
MCST.                                                  : Rmc Temperature
MFSS.                                                  : Source of Rmf
MCSS.                                                  : Source of Rmc
RMBH.                                                  : Rm at BHT
BHT .                                                  : Bottom Hole Temperature
MRT .                                                  : Max Recorded Temperature
RUN .          3                                       : Run #
DATE.                                                  : Date log was run
TDD .                                                  : Depth - Driller
TDL .                                                  : Depth - Logger
BLI .                                                  : Bottom Log Interval
TLI .                                                  : Top Log Interval
CBD .                                                  : Casing - Driller
CBL .                                                  : Casing - Logger
BS  .                                                  : Bit Size
DFT .                                                  : Type of Fluid In Hole
DFD .                                                  : Drilling Fluid Density
DFV .                                                  : Drilling Fluid Viscosity
DFPH.                                                  : Drilling Fluid pH
DFL .                                                  : Drilling Fluid Loss
MSS .                                                  : Source of Sample
RMS .                                                  : Mud Resitivity
MST .                                                  : Rm Temperature
RMFS.                                                  : Mud Filtrate Resistivity
MFST.                                                  : Rmf Temperature
RMCS.                                                  : Mud Cake Resitivity
MCST.                                                  : Rmc Temperature
MFSS.                                                  : Source of Rmf
MCSS.                                                  : Source of Rmc
RMBH.                                                  : Rm at BHT
BHT .                                                  : Bottom Hole Temperature
MRT .                                                  : Max Recorded Temperature
~Curve Information Section
DEPTH.FT                                               : 
GR.GAPI                                                : 
SP.mV                                                  : 
RES_D.OHMM                                             : 
RES_S.OHMM                                             : 
CALI.IN                                                : 
NPHI_SS.DEC                                            : 
PHIT.DEC                                               : 
PHIE.DEC                                               : 
SW.DEC                                                 : 
BVW.DEC                                                : 
SHALE.DEC                                              : 
SAND.DEC                                               : 
LS.DEC                                                 : 
RHOB.G/CC                                              : 
RHOB_ORG.G/CC                                          : 
DEN_FLAG.                                              : 
VP.FT/S                                                : 
VP_ORG.FT/S                                            : 
VP_FLAG.                                               : 
VS.FT/S                                                : 
VS_FLAG.                                               : 
AI.                                                    : 
AI_ORG.                                                : 
PR.                                                    : 
PRFRAME.                                               : 
~ASCII Log Data Section
# ...
      5385.0     88.5800     -0.5090      0.9930      1.1140      8.3960      0.4800      0.2425      0.0035      1.0000      0.0035      0.9855      0.0000      0.0145      2.2580      2.2580      0.0000   8229.1670   7432.6787      1.0000   3517.8489      1.0000  18581.4590  16782.9883      0.3882      0.3514
      5385.5     90.8000     -0.5660      0.9920      1.1460      8.4030      0.4750      0.2336      0.0043      1.0000      0.0043      0.9818      0.0000      0.0182      2.2730      2.2730      0.0000   8437.5000   7619.2798      1.0000   3638.3667      1.0000  19178.4375  17318.6230      0.3858      0.3513
      5386.0     93.1520     -0.6230      0.9900      1.0830      8.4100      0.4690      0.2300      0.0045      1.0000      0.0045      0.9803      0.0000      0.0197      2.2790      2.2790      0.0000   8604.1670   8134.9756      1.0000   3758.8845      1.0000  19608.8965  18539.6094      0.3821      0.3512
      5386.5     93.7430     -0.6830      0.9880      1.0330      8.4160      0.4610      0.2318      0.0044      1.0000      0.0044      0.9810      0.0000      0.0190      2.2760      2.2760      0.0000   8729.1670   8405.3389      1.0000   3783.9924      1.0000  19867.5840  19130.5508      0.3843      0.3513
      5387.0     92.1380     -0.7510      0.9860      1.0080      8.4230      0.4470      0.2365      0.0040      1.0000      0.0040      0.9830      0.0000      0.0170      2.2680      2.2680      0.0000   8541.6670   8005.6997      1.0000   3718.7119      1.0000  19372.5000  18156.9258      0.3831      0.3513
      5387.5     90.5160     -0.8200      0.9840      0.9900      8.4290      0.4330      0.2383      0.0039      1.0000      0.0039      0.9837      0.0000      0.0163      2.2650      2.2650      0.0000   8333.3330   7473.6743      1.0000   3578.1077      1.0000  18875.0000  16927.8730      0.3870      0.3514
      5388.0     89.1920     -0.8880      0.9900      1.0260      8.4350      0.4320      0.2347      0.0042      1.0000      0.0042      0.9823      0.0000      0.0177      2.2710      2.2710      0.0000   8145.8335   7132.7183      1.0000   3442.5251      1.0000  18499.1875  16198.4023      0.3913      0.3513
      5388.5     88.1590     -1.1430      0.9950      1.1150      8.4410      0.4410      0.2300      0.0045      1.0000      0.0045      0.9803      0.0000      0.0197      2.2790      2.2790      0.0000   7979.1665   6821.7939      1.0000   3342.0938      1.0000  18184.5215  15546.8691      0.3936      0.3512
      5389.0     88.1350     -1.6360      1.0000      1.2340      8.4480      0.4550      0.2312      0.0044      1.0000      0.0044      0.9808      0.0000      0.0192      2.2770      2.2770      0.0000   7916.6665   6764.7559      1.0000   3291.8779      1.0000  18026.2500  15403.3486      0.3955      0.3512
      5389.5     89.7980     -2.1330      1.0050      1.2860      8.4540      0.4710      0.2401      0.0037      1.0000      0.0037      0.9845      0.0000      0.0155      2.2620      2.2620      0.0000   7937.5000   7163.4263      1.0000   3301.9211      1.0000  17954.6250  16203.6709      0.3954      0.3514
      5390.0     91.4730     -2.8530      1.0110      1.2630      8.4600      0.4800      0.2455      0.0033      1.0000      0.0033      0.9868      0.0000      0.0132      2.2530      2.2530      0.0000   8020.8335   7712.7163      1.0000   3342.0938      1.0000  18070.9375  17376.7500      0.3950      0.3515
      5390.5     93.0260     -3.6480      1.0190      1.2250      8.4490      0.4580      0.2419      0.0036      1.0000      0.0036      0.9852      0.0000      0.0148      2.2590      2.2590      0.0000   8083.3335   7983.9043      1.0000   3406.6667      1.0000  18260.2500  18035.6406      0.3920      0.3514
      5391.0     93.9020     -4.3860      1.0280      1.2540      8.4380      0.4360      0.2330      0.0043      1.0000      0.0043      0.9815      0.0000      0.0185      2.2740      2.2740      0.0000   8205.3975   8205.3975      0.0000   3468.4072      1.0000  18659.0742  18659.0742      0.3912      0.3513
      5391.5     94.7880     -4.3740      1.0370      1.3520      8.4460      0.4180      0.2270      0.0048      1.0000      0.0048      0.9790      0.0000      0.0210      2.2840      2.2840      0.0000   8276.9805   8276.9805      0.0000   3504.2112      1.0000  18904.6230  18904.6230      0.3908      0.3512
      5392.0     94.9720     -3.9980      1.0450      1.4180      8.4620      0.4200      0.2306      0.0045      1.0000      0.0045      0.9805      0.0000      0.0195      2.2780      2.2780      0.0000   8231.8760   8231.8760      0.0000   3485.8342      1.0000  18752.2148  18752.2148      0.3908      0.3512
      5392.5     92.6360     -3.5000      1.0540      1.4430      8.4790      0.4360      0.2449      0.0033      1.0000      0.0033      0.9865      0.0000      0.0135      2.2540      2.2540      0.0000   8129.1562   8129.1562      0.0000   3404.3911      1.0000  18323.1172  18323.1172      0.3937      0.3514
      5393.0     90.2690     -3.0040      1.0590      1.3940      8.4960      0.4500      0.2550      0.0024      1.0000      0.0024      0.9908      0.0000      0.0092      2.2370      2.2370      0.0000   7939.0913   7939.0913      0.0000   3287.4929      1.0000  17759.7480  17759.7480      0.3965      0.3516
      5393.5     89.9200     -2.5080      1.0530      1.3140      8.5120      0.4540      0.2568      0.0022      1.0000      0.0022      0.9915      0.0000      0.0085      2.2340      2.2340      0.0000   7746.8936   7746.8936      0.0000   3154.5193      1.0000  17306.5605  17306.5605      0.4006      0.3516
      5394.0     91.3830     -2.0110      1.0500      1.2550      8.5290      0.4520      0.2532      0.0025      1.0000      0.0025      0.9900      0.0000      0.0100      2.2400      2.2400      0.0000   7577.4795   7577.4795      0.0000   3057.6528      1.0000  16973.5547  16973.5547      0.4028      0.3516
      5394.5     93.1680     -1.7710      1.0460      1.3180      8.5460      0.4460      0.2467      0.0031      1.0000      0.0031      0.9873      0.0000      0.0127      2.2510      2.2510      0.0000   7537.2148   7537.2148      0.0000   3037.8447      1.0000  16966.2695  16966.2695      0.4030      0.3515
      5395.0     95.0060     -1.8780      1.0420      1.4000      8.5620      0.4380      0.2371      0.0040      1.0000      0.0040      0.9833      0.0000      0.0167      2.2670      2.2670      0.0000   7664.7144   7664.7144      0.0000   3125.2185      1.0000  17375.9062  17375.9062      0.4003      0.3513
      5395.5     94.6880     -1.9880      1.0390      1.3790      8.5790      0.4440      0.2258      0.0049      1.0000      0.0049      0.9785      0.0000      0.0215      2.2860      2.2860      0.0000   7939.9736   7939.9736      0.0000   3279.7720      1.0000  18150.7793  18150.7793      0.3971      0.3512
      5396.0     94.3000     -2.0980      1.0350      1.3020      8.5920      0.4620      0.2163      0.0055      1.0000      0.0055      0.9745      0.0000      0.0255      2.3020      2.3020      0.0000   8178.4204   8178.4204      0.0000   3439.4275      1.0000  18826.7246  18826.7246      0.3926      0.3510
      5396.5     96.6150     -2.2100      1.0310      1.2230      8.5880      0.4720      0.2175      0.0054      1.0000      0.0054      0.9750      0.0000      0.0250      2.3000      2.3000      0.0000   8327.0879   8327.0879      0.0000   3529.8152      1.0000  19152.3008  19152.3008      0.3905      0.3510
      5397.0     99.0960     -2.4120      1.0280      1.1460      8.5850      0.4700      0.2246      0.0049      1.0000      0.0049      0.9780      0.0000      0.0220      2.2880      2.2880      0.0000   8314.9707   8314.9707      0.0000   3525.3916      1.0000  19024.6543  19024.6543      0.3904      0.3512
      5397.5    101.5240     -2.6770      1.0240      1.1480      8.5810      0.4620      0.2312      0.0044      1.0000      0.0044      0.9808      0.0000      0.0192      2.2770      2.2770      0.0000   8160.0684   8160.0684      0.0000   3442.7952      1.0000  18580.4746  18580.4746      0.3917      0.3512
