~Version Information Section
VERS.          2.0                                     : CWLS LOG ASCII Standard
WRAP.          NO                                      : One line per depth step
~Well Information Section
STRT.FT        900.0                                   : Start Depth
STOP.FT        5500.0                                  : Stop Depth
STEP.FT        0.5                                     : Step
NULL.          -999.0000                               : Null Value
COMP.          UNION TEXAS PETROLEUM CORP              : Company
WELL.          FEE #989                                : Well
FLD .          SULPHUR MINES                           : Field
LOC .                                                  : Location
LOC1.                                                  : Location 1
CTRY.          USA                                     : Country
STAT.          LOUISIANA                               : State
CNTY.          CALCASIEU                               : County
UWI .          170192138600                            : UWI Number
API .          170192138600                            : API Number
SECT.          29                                      : Section
TOWN.          9S                                      : Township
RNGE.          10W                                     : Range
PDAT.          BHF                                     : Perm Datum
EPD .          12.5                                    : Elevation
LMF .          RKB                                     : Log Measured From
DMF .          RKB                                     : Drill Measured From
APD .          15.5                                    : Above Perm Datum
EKB .          28                                      : Elev-Kelly Bushing.
EDF .          27                                      : Elev-Drill Floor
EGL .          12.5                                    : Elev-Ground Level
SRVC.          Petcom, Inc.                            : Service Company
DATE.          18 Oct 2018 @ 20:09                     : Date
~Parameter Information Section
RUN .          1                                       : Run #
DATE.          22 JAN 1985                             : Date log was run
TDD .          5473                                    : Depth - Driller
TDL .          5476                                    : Depth - Logger
BLI .          5472                                    : Bottom Log Interval
TLI .          1027                                    : Top Log Interval
CBD .          9 5/8" @ 1030'                          : Casing - Driller
CBL .          1027                                    : Casing - Logger
BS  .          8.5                                     : Bit Size
DFT .          LIGNOSULFATE                            : Type of Fluid In Hole
DFD .          9.6                                     : Drilling Fluid Density
DFV .          51                                      : Drilling Fluid Viscosity
DFPH.          11.0                                    : Drilling Fluid pH
DFL .          6.0                                     : Drilling Fluid Loss
MSS .          MUD PIT                                 : Source of Sample
RMS .          2.21                                    : Mud Resitivity
MST .          40                                      : Rm Temperature
RMFS.          1.66                                    : Mud Filtrate Resistivity
MFST.          40                                      : Rmf Temperature
RMCS.          3.32                                    : Mud Cake Resitivity
MCST.          40                                      : Rmc Temperature
MFSS.          CALC                                    : Source of Rmf
MCSS.          CALC                                    : Source of Rmc
RMBH.          0.792                                   : Rm at BHT
BHT .          124                                     : Bottom Hole Temperature
MRT .          124 DEGF                                : Max Recorded Temperature
RUN .          2                                       : Run #
DATE.                                                  : Date log was run
TDD .                                                  : Depth - Driller
TDL .                                                  : Depth - Logger
BLI .                                                  : Bottom Log Interval
TLI .                                                  : Top Log Interval
CBD .                                                  : Casing - Driller
CBL .                                                  : Casing - Logger
BS  .                                                  : Bit Size
DFT .                                                  : Type of Fluid In Hole
DFD .                                                  : Drilling Fluid Density
DFV .                                                  : Drilling Fluid Viscosity
DFPH.                                                  : Drilling Fluid pH
DFL .                                                  : Drilling Fluid Loss
MSS .                                                  : Source of Sample
RMS .                                                  : Mud Resitivity
MST .                                                  : Rm Temperature
RMFS.                                                  : Mud Filtrate Resistivity
MFST.                                                  : Rmf Temperature
RMCS.                                                  : Mud Cake Resitivity
MCST.                                                  : Rmc Temperature
MFSS.                                                  : Source of Rmf
MCSS.                                                  : Source of Rmc
RMBH.                                                  : Rm at BHT
BHT .                                                  : Bottom Hole Temperature
MRT .                                                  : Max Recorded Temperature
RUN .          3                                       : Run #
DATE.                                                  : Date log was run
TDD .                                                  : Depth - Driller
TDL .                                                  : Depth - Logger
BLI .                                                  : Bottom Log Interval
TLI .                                                  : Top Log Interval
CBD .                                                  : Casing - Driller
CBL .                                                  : Casing - Logger
BS  .                                                  : Bit Size
DFT .                                                  : Type of Fluid In Hole
DFD .                                                  : Drilling Fluid Density
DFV .                                                  : Drilling Fluid Viscosity
DFPH.                                                  : Drilling Fluid pH
DFL .                                                  : Drilling Fluid Loss
MSS .                                                  : Source of Sample
RMS .                                                  : Mud Resitivity
MST .                                                  : Rm Temperature
RMFS.                                                  : Mud Filtrate Resistivity
MFST.                                                  : Rmf Temperature
RMCS.                                                  : Mud Cake Resitivity
MCST.                                                  : Rmc Temperature
MFSS.                                                  : Source of Rmf
MCSS.                                                  : Source of Rmc
RMBH.                                                  : Rm at BHT
BHT .                                                  : Bottom Hole Temperature
MRT .                                                  : Max Recorded Temperature
~Curve Information Section
DEPTH.FT                                               : 
GR.GAPI                                                : 
SP.mV                                                  : 
RES_D.OHMM                                             : 
RES_S.OHMM                                             : 
CALI.IN                                                : 
NPHI_SS.DEC                                            : 
PHIT.DEC                                               : 
PHIE.DEC                                               : 
SW.DEC                                                 : 
BVW.DEC                                                : 
SHALE.DEC                                              : 
SAND.DEC                                               : 
LS.DEC                                                 : 
RHOB.G/CC                                              : 
RHOB_ORG.G/CC                                          : 
DEN_FLAG.                                              : 
VP.FT/S                                                : 
VP_ORG.FT/S                                            : 
VP_FLAG.                                               : 
VS.FT/S                                                : 
VS_FLAG.                                               : 
AI.                                                    : 
AI_ORG.                                                : 
PR.                                                    : 
PRFRAME.                                               : 
~ASCII Log Data Section
# ...
      3929.0     68.9470     -3.0770      1.3340      1.4600      8.8590   -999.0000      0.2109      0.0284      1.0000      0.0284      0.8651      0.1073      0.0275      2.3102   -999.0000      1.0000   9078.6113   9078.6113      0.0000   4086.8875      1.0000  20973.2070   -999.0000      0.3729      0.3271
      3929.5     68.3040     -3.2740      1.3580      1.4430      8.8610   -999.0000      0.2143      0.0318      1.0000      0.0318      0.8517      0.1222      0.0261      2.3043   -999.0000      1.0000   8845.0957   8845.0957      0.0000   3946.3442      1.0000  20381.3457   -999.0000      0.3757      0.3239
      3930.0     69.1050     -4.0130      1.3420      1.4260      8.8630   -999.0000      0.2210      0.0298      1.0000      0.0298      0.8649      0.1117      0.0233      2.2932   -999.0000      1.0000   8624.8535   8624.8535      0.0000   3786.4998      1.0000  19778.7871   -999.0000      0.3806      0.3263
      3930.5     72.6410     -4.8220      1.3200      1.3900      8.8650   -999.0000      0.2297      0.0205      1.0000      0.0205      0.9108      0.0695      0.0197      2.2789   -999.0000      1.0000   8415.4541   8415.4541      0.0000   3634.8611      1.0000  19178.1621   -999.0000      0.3853      0.3358
      3931.0     77.4710     -5.6330      1.2760      1.2440      8.8670   -999.0000      0.2394      0.0087      1.0000      0.0087      0.9638      0.0204      0.0158      2.2631   -999.0000      1.0000   8215.9824   8215.9824      0.0000   3490.4707      1.0000  18593.7773   -999.0000      0.3899      0.3468
      3931.5     82.2940     -6.3400      1.2180      1.1020      8.8690   -999.0000      0.2489      0.0029      1.0000      0.0029      0.9882      0.0000      0.0118      2.2472   -999.0000      1.0000   8025.8110   8025.8110      0.0000   3352.7739      1.0000  18035.5938   -999.0000      0.3943      0.3515
      3932.0     87.1110     -6.7670      1.1630      1.0650      8.8710   -999.0000      0.2576      0.0021      1.0000      0.0021      0.9918      0.0000      0.0082      2.2328   -999.0000      1.0000   7844.1831   7844.1831      0.0000   3221.3301      1.0000  17514.2383   -999.0000      0.3986      0.3516
      3932.5     90.9640     -6.7770      1.1100      1.0120      8.8730   -999.0000      0.2645      0.0014      1.0000      0.0014      0.9947      0.0000      0.0053      2.2211   -999.0000      1.0000   7670.6528   7670.6528      0.0000   3095.4771      1.0000  17036.9629   -999.0000      0.4027      0.3517
      3933.0     87.6010     -6.1850      1.0590      0.9450      8.8750   -999.0000      0.2698      0.0008      1.0000      0.0008      0.9970      0.0000      0.0030      2.2122   -999.0000      1.0000   7503.6763   7503.6763      0.0000   2986.4636      1.0000  16599.5195   -999.0000      0.4059      0.3518
      3933.5     84.3150     -5.5870      1.0090      0.8820      8.8770   -999.0000      0.2735      0.0004      1.0000      0.0004      0.9985      0.0000      0.0015      2.2061   -999.0000      1.0000   7391.9116   7391.9116      0.0000   2908.5815      1.0000  16307.4951   -999.0000      0.4084      0.3519
      3934.0     82.9160     -5.3820      1.0050      0.8720      8.8790   -999.0000      0.2753      0.0002      1.0000      0.0002      0.9993      0.0000      0.0007      2.2030   -999.0000      1.0000   7347.5381   7347.5381      0.0000   2888.9021      1.0000  16186.5625   -999.0000      0.4086      0.3519
      3934.5     84.8770     -5.3190      1.0030      0.9080      8.8810   -999.0000      0.2750      0.0002      1.0000      0.0002      0.9991      0.0000      0.0009      2.2035   -999.0000      1.0000   7422.0317   7422.0317      0.0000   2917.7705      1.0000  16354.5264   -999.0000      0.4086      0.3519
      3935.0     87.6630     -5.2550      1.0190      0.9690      8.8930   -999.0000      0.2725      0.0005      1.0000      0.0005      0.9981      0.0000      0.0019      2.2077   -999.0000      1.0000   7511.6802   7511.6802      0.0000   2979.4995      1.0000  16583.3926   -999.0000      0.4066      0.3519
      3935.5     86.3740     -5.1890      1.0500      1.0350      8.9140   -999.0000      0.2678      0.0010      1.0000      0.0010      0.9961      0.0000      0.0039      2.2155   -999.0000      1.0000   7603.6372   7603.6372      0.0000   3049.0920      1.0000  16845.9883   -999.0000      0.4042      0.3518
      3936.0     83.9940     -4.9340      1.0830      1.1050      8.9340   -999.0000      0.2613      0.0017      1.0000      0.0017      0.9934      0.0000      0.0066      2.2265   -999.0000      1.0000   7710.7544   7710.7544      0.0000   3141.8230      1.0000  17168.0547   -999.0000      0.4005      0.3517
      3936.5     81.6150     -4.5450      1.1170      1.1790      8.9540   -999.0000      0.2532      0.0025      1.0000      0.0025      0.9900      0.0000      0.0100      2.2400   -999.0000      1.0000   7896.3994   7896.3994      0.0000   3259.1548      1.0000  17687.7773   -999.0000      0.3973      0.3516
      3937.0     79.2390     -4.1580      1.1510      1.2590      8.9740   -999.0000      0.2447      0.0033      1.0000      0.0033      0.9864      0.0000      0.0136      2.2543   -999.0000      1.0000   8090.4189   8090.4189      0.0000   3399.7888      1.0000  18238.4199   -999.0000      0.3928      0.3514
      3937.5     76.8590     -3.7700      1.1850      1.3180      8.9940   -999.0000      0.2362      0.0087      1.0000      0.0087      0.9633      0.0196      0.0171      2.2684   -999.0000      1.0000   8294.2119   8294.2119      0.0000   3547.3535      1.0000  18814.1895   -999.0000      0.3881      0.3470
      3938.0     75.1280     -3.3820      1.2200      1.3230      9.0130   -999.0000      0.2286      0.0127      1.0000      0.0127      0.9447      0.0351      0.0203      2.2810   -999.0000      1.0000   8508.6104   8508.6104      0.0000   3702.5544      1.0000  19408.2461   -999.0000      0.3832      0.3434
      3938.5     77.3770     -3.0410      1.2470      1.3520      9.0080   -999.0000      0.2229      0.0063      1.0000      0.0063      0.9718      0.0054      0.0227      2.2908   -999.0000      1.0000   8734.3115   8734.3115      0.0000   3855.4192      1.0000  20008.8027   -999.0000      0.3790      0.3499
      3939.0     80.4540     -3.0460      1.2470      1.4080      9.0020   -999.0000      0.2193      0.0053      1.0000      0.0053      0.9758      0.0000      0.0242      2.2969   -999.0000      1.0000   8928.4121   8928.4121      0.0000   3974.7231      1.0000  20507.9023   -999.0000      0.3764      0.3511
      3939.5     79.5720     -3.0460      1.2420      1.4690      8.9960   -999.0000      0.2179      0.0054      1.0000      0.0054      0.9752      0.0000      0.0248      2.2993   -999.0000      1.0000   9003.5742   9003.5742      0.0000   4027.9453      1.0000  20702.0117   -999.0000      0.3749      0.3511
      3940.0     78.5240     -3.0460      1.2200      1.4880      8.9900   -999.0000      0.2187      0.0054      1.0000      0.0054      0.9755      0.0000      0.0245      2.2980   -999.0000      1.0000   8955.1172   8955.1172      0.0000   3985.3425      1.0000  20578.6387   -999.0000      0.3765      0.3511
      3940.5     77.4700     -3.0460      1.1990      1.3590      8.9840   -999.0000      0.2216      0.0060      1.0000      0.0060      0.9729      0.0038      0.0233      2.2931   -999.0000      1.0000   8751.6631   8751.6631      0.0000   3874.1851      1.0000  20068.2441   -999.0000      0.3781      0.3503
      3941.0     75.4750     -3.0460      1.1810      1.2290      8.9780   -999.0000      0.2259      0.0113      1.0000      0.0113      0.9498      0.0287      0.0214      2.2856   -999.0000      1.0000   8542.4082   8542.4082      0.0000   3726.6423      1.0000  19524.9375   -999.0000      0.3825      0.3448
      3941.5     73.1300     -3.0470      1.1500      1.1120      8.9720   -999.0000      0.2314      0.0179      1.0000      0.0179      0.9227      0.0582      0.0191      2.2762   -999.0000      1.0000   8342.9971   8342.9971      0.0000   3582.2507      1.0000  18990.6758   -999.0000      0.3870      0.3383
