~Version Information Section
VERS.          2.0                                     : CWLS LOG ASCII Standard
WRAP.          NO                                      : One line per depth step
~Well Information Section
STRT.FT        900.0                                   : Start Depth
STOP.FT        5500.0                                  : Stop Depth
STEP.FT        0.5                                     : Step
NULL.          -999.0000                               : Null Value
COMP.          UNION TEXAS PETROLEUM CORP              : Company
WELL.          FEE #989                                : Well
FLD .          SULPHUR MINES                           : Field
LOC .                                                  : Location
LOC1.                                                  : Location 1
CTRY.          USA                                     : Country
STAT.          LOUISIANA                               : State
CNTY.          CALCASIEU                               : County
UWI .          170192138600                            : UWI Number
API .          170192138600                            : API Number
SECT.          29                                      : Section
TOWN.          9S                                      : Township
RNGE.          10W                                     : Range
PDAT.          BHF                                     : Perm Datum
EPD .          12.5                                    : Elevation
LMF .          RKB                                     : Log Measured From
DMF .          RKB                                     : Drill Measured From
APD .          15.5                                    : Above Perm Datum
EKB .          28                                      : Elev-Kelly Bushing.
EDF .          27                                      : Elev-Drill Floor
EGL .          12.5                                    : Elev-Ground Level
SRVC.          Petcom, Inc.                            : Service Company
DATE.          18 Oct 2018 @ 20:09                     : Date
~Parameter Information Section
RUN .          1                                       : Run #
DATE.          22 JAN 1985                             : Date log was run
TDD .          5473                                    : Depth - Driller
TDL .          5476                                    : Depth - Logger
BLI .          5472                                    : Bottom Log Interval
TLI .          1027                                    : Top Log Interval
CBD .          9 5/8" @ 1030'                          : Casing - Driller
CBL .          1027                                    : Casing - Logger
BS  .          8.5                                     : Bit Size
DFT .          LIGNOSULFATE                            : Type of Fluid In Hole
DFD .          9.6                                     : Drilling Fluid Density
DFV .          51                                      : Drilling Fluid Viscosity
DFPH.          11.0                                    : Drilling Fluid pH
DFL .          6.0                                     : Drilling Fluid Loss
MSS .          MUD PIT                                 : Source of Sample
RMS .          2.21                                    : Mud Resitivity
MST .          40                                      : Rm Temperature
RMFS.          1.66                                    : Mud Filtrate Resistivity
MFST.          40                                      : Rmf Temperature
RMCS.          3.32                                    : Mud Cake Resitivity
MCST.          40                                      : Rmc Temperature
MFSS.          CALC                                    : Source of Rmf
MCSS.          CALC                                    : Source of Rmc
RMBH.          0.792                                   : Rm at BHT
BHT .          124                                     : Bottom Hole Temperature
MRT .          124 DEGF                                : Max Recorded Temperature
RUN .          2                                       : Run #
DATE.                                                  : Date log was run
TDD .                                                  : Depth - Driller
TDL .                                                  : Depth - Logger
BLI .                                                  : Bottom Log Interval
TLI .                                                  : Top Log Interval
CBD .                                                  : Casing - Driller
CBL .                                                  : Casing - Logger
BS  .                                                  : Bit Size
DFT .                                                  : Type of Fluid In Hole
DFD .                                                  : Drilling Fluid Density
DFV .                                                  : Drilling Fluid Viscosity
DFPH.                                                  : Drilling Fluid pH
DFL .                                                  : Drilling Fluid Loss
MSS .                                                  : Source of Sample
RMS .                                                  : Mud Resitivity
MST .                                                  : Rm Temperature
RMFS.                                                  : Mud Filtrate Resistivity
MFST.                                                  : Rmf Temperature
RMCS.                                                  : Mud Cake Resitivity
MCST.                                                  : Rmc Temperature
MFSS.                                                  : Source of Rmf
MCSS.                                                  : Source of Rmc
RMBH.                                                  : Rm at BHT
BHT .                                                  : Bottom Hole Temperature
MRT .                                                  : Max Recorded Temperature
RUN .          3                                       : Run #
DATE.                                                  : Date log was run
TDD .                                                  : Depth - Driller
TDL .                                                  : Depth - Logger
BLI .                                                  : Bottom Log Interval
TLI .                                                  : Top Log Interval
CBD .                                                  : Casing - Driller
CBL .                                                  : Casing - Logger
BS  .                                                  : Bit Size
DFT .                                                  : Type of Fluid In Hole
DFD .                                                  : Drilling Fluid Density
DFV .                                                  : Drilling Fluid Viscosity
DFPH.                                                  : Drilling Fluid pH
DFL .                                                  : Drilling Fluid Loss
MSS .                                                  : Source of Sample
RMS .                                                  : Mud Resitivity
MST .                                                  : Rm Temperature
RMFS.                                                  : Mud Filtrate Resistivity
MFST.                                                  : Rmf Temperature
RMCS.                                                  : Mud Cake Resitivity
MCST.                                                  : Rmc Temperature
MFSS.                                                  : Source of Rmf
MCSS.                                                  : Source of Rmc
RMBH.                                                  : Rm at BHT
BHT .                                                  : Bottom Hole Temperature
MRT .                                                  : Max Recorded Temperature
~Curve Information Section
DEPTH.FT                                               : 
GR.GAPI                                                : 
SP.mV                                                  : 
RES_D.OHMM                                             : 
RES_S.OHMM                                             : 
CALI.IN                                                : 
NPHI_SS.DEC                                            : 
PHIT.DEC                                               : 
PHIE.DEC                                               : 
SW.DEC                                                 : 
BVW.DEC                                                : 
SHALE.DEC                                              : 
SAND.DEC                                               : 
LS.DEC                                                 : 
RHOB.G/CC                                              : 
RHOB_ORG.G/CC                                          : 
DEN_FLAG.                                              : 
VP.FT/S                                                : 
VP_ORG.FT/S                                            : 
VP_FLAG.                                               : 
VS.FT/S                                                : 
VS_FLAG.                                               : 
AI.                                                    : 
AI_ORG.                                                : 
PR.                                                    : 
PRFRAME.                                               : 
~ASCII Log Data Section
# ...
      4514.0     46.0080   -102.5540      0.2320      1.1350     12.2000      0.4760      0.3505      0.2839      1.0000      0.2839      0.1901      0.8099      0.0000      2.0729      1.3640      1.0000   7553.3267   7553.3267      0.0000   3151.4841      1.0000  15657.4170  10302.7373      0.3946      0.1722
      4514.5     43.8440   -102.7580      0.2360      1.0800     12.3740      0.4870      0.3466      0.2880      1.0000      0.2880      0.1691      0.8309      0.0000      2.0792      1.2750      1.0000   7719.9810   7719.9810      0.0000   3262.7100      1.0000  16051.1270   9842.9756      0.3913      0.1675
      4515.0     41.3910   -102.8830      0.2410      1.0290     12.9380      0.5190      0.3428      0.2925      1.0000      0.2925      0.1466      0.8534      0.0000      2.0854      1.2440      1.0000   7894.2173   7894.2173      0.0000   3359.5625      1.0000  16462.7305   9820.4062      0.3894      0.1625
      4515.5     38.9370   -103.0070      0.2440      0.8970     13.5040      0.5530      0.3364      0.2943      1.0000      0.2943      0.1251      0.8749      0.0000      2.0958      1.2230      1.0000   7931.0317   7931.0317      0.0000   3368.7129      1.0000  16622.1211   9699.6523      0.3899      0.1578
      4516.0     36.8730   -103.1310      0.2370      0.7400     14.0680      0.5880      0.3363      0.3000      1.0000      0.3000      0.1078      0.8922      0.0000      2.0958      1.2010      1.0000   7755.6655   7755.6655      0.0000   3313.2734      1.0000  16254.5820   9314.5537      0.3884      0.1539
      4516.5     37.2810   -103.2560      0.2320      0.6430     14.1720      0.5920      0.3439      0.3058      1.0000      0.3058      0.1106      0.8894      0.0000      2.0833      1.2010      1.0000   7678.0146   7678.0146      0.0000   3271.4568      1.0000  15995.8633   9221.2949      0.3891      0.1546
      4517.0     37.6580   -103.3800      0.2270      0.5980     13.8520      0.5660      0.3414      0.3027      1.0000      0.3027      0.1132      0.8868      0.0000      2.0875      1.2800      1.0000   7767.9561   7767.9561      0.0000   3316.2798      1.0000  16215.6094   9942.9834      0.3886      0.1551
      4517.5     38.0310   -103.4020      0.2210      0.5710     13.6280      0.5330      0.3288      0.2906      1.0000      0.2906      0.1162      0.8838      0.0000      2.1083      1.4310      1.0000   7930.4658   7930.4658      0.0000   3424.8201      1.0000  16720.0664  11348.4961      0.3854      0.1558
      4518.0     38.4020   -103.3200      0.2140      0.5610     13.6280      0.5060      0.3262      0.2872      1.0000      0.2872      0.1195      0.8805      0.0000      2.1125      1.6500      1.0000   8101.2988   8101.2988      0.0000   3502.6011      1.0000  17113.9941  13367.1426      0.3850      0.1565
      4518.5     39.3130   -103.2370      0.2090      0.5550     13.7040      0.4970      0.3263      0.2847      1.0000      0.2847      0.1274      0.8726      0.0000      2.1125      1.8630      1.0000   8071.2852   8071.2852      0.0000   3505.8154      1.0000  17050.5898  15036.8047      0.3837      0.1583
      4519.0     41.1480   -103.1540      0.2060      0.5500     13.9060      0.5040      0.3301      0.2828      1.0000      0.2828      0.1435      0.8565      0.0000      2.1063      1.8990      1.0000   7943.0010   7943.0010      0.0000   3412.2173      1.0000  16729.9453  15083.7588      0.3868      0.1618
      4519.5     41.8260   -103.0710      0.2050      0.5620     14.1760      0.5060      0.3453      0.2936      1.0000      0.2936      0.1497      0.8503      0.0000      2.0812      1.8530      1.0000   7736.2856   7736.2856      0.0000   3292.7014      1.0000  16101.1445  14335.3379      0.3894      0.1632
      4520.0     41.6280   -102.9880      0.2040      0.6210     14.4460      0.5030      0.3503      0.2984      1.0000      0.2984      0.1483      0.8517      0.0000      2.0729      1.7040      1.0000   7605.1992   7605.1992      0.0000   3206.0811      1.0000  15764.9443  12959.2598      0.3919      0.1629
      4520.5     41.3500   -102.9840      0.2090      0.7080     14.5520      0.5110      0.3491      0.2982      1.0000      0.2982      0.1458      0.8542      0.0000      2.0750      1.6080      1.0000   7605.1992   7605.1992      0.0000   3218.4817      1.0000  15780.7891  12229.1611      0.3909      0.1624
      4521.0     41.0730   -103.6870      0.2130      0.8070     14.5940      0.5220      0.3440      0.2955      1.0000      0.2955      0.1409      0.8591      0.0000      2.0833      1.6340      1.0000   7784.6460   7784.6460      0.0000   3309.4148      1.0000  16218.0117  12720.1113      0.3897      0.1613
      4521.5     40.7440   -104.3850      0.2170      0.8460     14.6190      0.5080      0.3364      0.2908      1.0000      0.2908      0.1356      0.8644      0.0000      2.0958      1.7350      1.0000   7959.8188   7959.8188      0.0000   3448.0491      1.0000  16682.4531  13810.2861      0.3845      0.1601
      4522.0     39.9960   -104.7660      0.2180      0.8220     14.6410      0.4850      0.3288      0.2868      1.0000      0.2868      0.1278      0.8722      0.0000      2.1083      1.8550      1.0000   8145.8433   8145.8433      0.0000   3564.6252      1.0000  17174.1523  15110.5391      0.3816      0.1584
      4522.5     38.4680   -104.7700      0.2180      0.8050     14.6400      0.4690      0.3262      0.2887      1.0000      0.2887      0.1150      0.8850      0.0000      2.1125      1.8850      1.0000   8239.2686   8239.2686      0.0000   3607.3188      1.0000  17405.4551  15531.0215      0.3814      0.1555
      4523.0     36.2280   -104.7900      0.2170      0.7890     14.6110      0.4890      0.3236      0.2923      1.0000      0.2923      0.0969      0.9031      0.0000      2.1167      1.8120      1.0000   8126.3154   8126.3154      0.0000   3560.2026      1.0000  17200.6992  14724.8838      0.3812      0.1515
      4523.5     35.8720   -103.6990      0.2160      0.7720     14.5500      0.5090      0.3224      0.2908      1.0000      0.2908      0.0979      0.9021      0.0000      2.1188      1.7870      1.0000   7962.1001   7962.1001      0.0000   3486.3542      1.0000  16869.7012  14228.2725      0.3814      0.1517
      4524.0     36.9170   -101.9440      0.2140      0.7270     14.4640      0.5190      0.3287      0.2918      1.0000      0.2918      0.1124      0.8876      0.0000      2.1083      1.8370      1.0000   7951.2749   7951.2749      0.0000   3452.9141      1.0000  16763.9375  14606.4922      0.3838      0.1549
      4524.5     38.3370   -100.1650      0.2120      0.6770     14.3470      0.5130      0.3313      0.2882      1.0000      0.2882      0.1301      0.8699      0.0000      2.1042      1.9310      1.0000   7995.9058   7995.9058      0.0000   3467.8481      1.0000  16824.7188  15440.0938      0.3842      0.1589
      4525.0     39.7570    -98.3810      0.2110      0.6300     13.9420      0.4870      0.3314      0.2823      1.0000      0.2823      0.1483      0.8517      0.0000      2.1042      1.9560      1.0000   8020.3398   8020.3398      0.0000   3483.4490      1.0000  16876.1328  15687.7842      0.3838      0.1629
      4525.5     41.4070    -97.0950      0.2090      0.5860     13.5200      0.4620      0.3315      0.2761      1.0000      0.2761      0.1671      0.8329      0.0000      2.1042      1.9160      1.0000   8012.1147   8012.1147      0.0000   3487.3748      1.0000  16858.8262  15351.2119      0.3831      0.1671
      4526.0     43.1660    -97.8200      0.2080      0.5700     13.1030      0.4360      0.3290      0.2697      1.0000      0.2697      0.1803      0.8197      0.0000      2.1083      1.8310      1.0000   8011.2158   8011.2158      0.0000   3493.6453      1.0000  16890.3145  14668.5361      0.3826      0.1700
      4526.5     43.9850    -98.5560      0.2110      0.6310     13.5000      0.4440      0.3265      0.2660      1.0000      0.2660      0.1852      0.8148      0.0000      2.1125      1.7370      1.0000   8044.7935   8044.7935      0.0000   3531.4475      1.0000  16994.6250  13973.8057      0.3807      0.1711
