~Version Information Section
VERS.          2.0                                     : CWLS LOG ASCII Standard
WRAP.          NO                                      : One line per depth step
~Well Information Section
STRT.FT        900.0                                   : Start Depth
STOP.FT        5500.0                                  : Stop Depth
STEP.FT        0.5                                     : Step
NULL.          -999.0000                               : Null Value
COMP.          UNION TEXAS PETROLEUM CORP              : Company
WELL.          FEE #989                                : Well
FLD .          SULPHUR MINES                           : Field
LOC .                                                  : Location
LOC1.                                                  : Location 1
CTRY.          USA                                     : Country
STAT.          LOUISIANA                               : State
CNTY.          CALCASIEU                               : County
UWI .          170192138600                            : UWI Number
API .          170192138600                            : API Number
SECT.          29                                      : Section
TOWN.          9S                                      : Township
RNGE.          10W                                     : Range
PDAT.          BHF                                     : Perm Datum
EPD .          12.5                                    : Elevation
LMF .          RKB                                     : Log Measured From
DMF .          RKB                                     : Drill Measured From
APD .          15.5                                    : Above Perm Datum
EKB .          28                                      : Elev-Kelly Bushing.
EDF .          27                                      : Elev-Drill Floor
EGL .          12.5                                    : Elev-Ground Level
SRVC.          Petcom, Inc.                            : Service Company
DATE.          18 Oct 2018 @ 20:09                     : Date
~Parameter Information Section
RUN .          1                                       : Run #
DATE.          22 JAN 1985                             : Date log was run
TDD .          5473                                    : Depth - Driller
TDL .          5476                                    : Depth - Logger
BLI .          5472                                    : Bottom Log Interval
TLI .          1027                                    : Top Log Interval
CBD .          9 5/8" @ 1030'                          : Casing - Driller
CBL .          1027                                    : Casing - Logger
BS  .          8.5                                     : Bit Size
DFT .          LIGNOSULFATE                            : Type of Fluid In Hole
DFD .          9.6                                     : Drilling Fluid Density
DFV .          51                                      : Drilling Fluid Viscosity
DFPH.          11.0                                    : Drilling Fluid pH
DFL .          6.0                                     : Drilling Fluid Loss
MSS .          MUD PIT                                 : Source of Sample
RMS .          2.21                                    : Mud Resitivity
MST .          40                                      : Rm Temperature
RMFS.          1.66                                    : Mud Filtrate Resistivity
MFST.          40                                      : Rmf Temperature
RMCS.          3.32                                    : Mud Cake Resitivity
MCST.          40                                      : Rmc Temperature
MFSS.          CALC                                    : Source of Rmf
MCSS.          CALC                                    : Source of Rmc
RMBH.          0.792                                   : Rm at BHT
BHT .          124                                     : Bottom Hole Temperature
MRT .          124 DEGF                                : Max Recorded Temperature
RUN .          2                                       : Run #
DATE.                                                  : Date log was run
TDD .                                                  : Depth - Driller
TDL .                                                  : Depth - Logger
BLI .                                                  : Bottom Log Interval
TLI .                                                  : Top Log Interval
CBD .                                                  : Casing - Driller
CBL .                                                  : Casing - Logger
BS  .                                                  : Bit Size
DFT .                                                  : Type of Fluid In Hole
DFD .                                                  : Drilling Fluid Density
DFV .                                                  : Drilling Fluid Viscosity
DFPH.                                                  : Drilling Fluid pH
DFL .                                                  : Drilling Fluid Loss
MSS .                                                  : Source of Sample
RMS .                                                  : Mud Resitivity
MST .                                                  : Rm Temperature
RMFS.                                                  : Mud Filtrate Resistivity
MFST.                                                  : Rmf Temperature
RMCS.                                                  : Mud Cake Resitivity
MCST.                                                  : Rmc Temperature
MFSS.                                                  : Source of Rmf
MCSS.                                                  : Source of Rmc
RMBH.                                                  : Rm at BHT
BHT .                                                  : Bottom Hole Temperature
MRT .                                                  : Max Recorded Temperature
RUN .          3                                       : Run #
DATE.                                                  : Date log was run
TDD .                                                  : Depth - Driller
TDL .                                                  : Depth - Logger
BLI .                                                  : Bottom Log Interval
TLI .                                                  : Top Log Interval
CBD .                                                  : Casing - Driller
CBL .                                                  : Casing - Logger
BS  .                                                  : Bit Size
DFT .                                                  : Type of Fluid In Hole
DFD .                                                  : Drilling Fluid Density
DFV .                                                  : Drilling Fluid Viscosity
DFPH.                                                  : Drilling Fluid pH
DFL .                                                  : Drilling Fluid Loss
MSS .                                                  : Source of Sample
RMS .                                                  : Mud Resitivity
MST .                                                  : Rm Temperature
RMFS.                                                  : Mud Filtrate Resistivity
MFST.                                                  : Rmf Temperature
RMCS.                                                  : Mud Cake Resitivity
MCST.                                                  : Rmc Temperature
MFSS.                                                  : Source of Rmf
MCSS.                                                  : Source of Rmc
RMBH.                                                  : Rm at BHT
BHT .                                                  : Bottom Hole Temperature
MRT .                                                  : Max Recorded Temperature
~Curve Information Section
DEPTH.FT                                               : 
GR.GAPI                                                : 
SP.mV                                                  : 
RES_D.OHMM                                             : 
RES_S.OHMM                                             : 
CALI.IN                                                : 
NPHI_SS.DEC                                            : 
PHIT.DEC                                               : 
PHIE.DEC                                               : 
SW.DEC                                                 : 
BVW.DEC                                                : 
SHALE.DEC                                              : 
SAND.DEC                                               : 
LS.DEC                                                 : 
RHOB.G/CC                                              : 
RHOB_ORG.G/CC                                          : 
DEN_FLAG.                                              : 
VP.FT/S                                                : 
VP_ORG.FT/S                                            : 
VP_FLAG.                                               : 
VS.FT/S                                                : 
VS_FLAG.                                               : 
AI.                                                    : 
AI_ORG.                                                : 
PR.                                                    : 
PRFRAME.                                               : 
~ASCII Log Data Section
# ...
      1875.0     45.8090    -58.2710      0.5320      1.4000     10.6150   -999.0000      0.3627      0.1785      1.0000      0.1785      0.5078      0.4922      0.0000      2.0548   -999.0000      1.0000   6416.6665   6474.7129      1.0000   2376.3740      1.0000  13184.8154   -999.0000      0.4205      0.2427
      1875.5     46.9690    -59.1500      0.5040      1.3750     10.6410   -999.0000      0.3657      0.1699      1.0000      0.1699      0.5355      0.4645      0.0000      2.0499   -999.0000      1.0000   6291.6665   6156.7256      1.0000   2262.7827      1.0000  12897.5635   -999.0000      0.4257      0.2488
      1876.0     50.4280    -60.0360      0.4870      1.3420     10.6660   -999.0000      0.3683      0.1274      1.0000      0.1274      0.6541      0.3459      0.0000      2.0465   -999.0000      1.0000   6229.1665   5962.2827      1.0000   2205.9873      1.0000  12747.7988   -999.0000      0.4283      0.2752
      1876.5     53.8970    -60.9230      0.4780      1.3460     10.6920   -999.0000      0.3769      0.0971      1.0000      0.0971      0.7423      0.2577      0.0000      2.0328   -999.0000      1.0000   6187.5000   6090.8013      1.0000   2130.6960      1.0000  12578.0820   -999.0000      0.4327      0.2947
      1877.0     56.9550    -61.8140      0.4780      1.3530     10.7170   -999.0000      0.3790      0.0756      1.0000      0.0756      0.8006      0.1994      0.0000      2.0296   -999.0000      1.0000   6187.5000   6274.4702      1.0000   2125.5330      1.0000  12558.2500   -999.0000      0.4331      0.3077
      1877.5     54.3910    -62.2860      0.4780      1.3820     10.7430   -999.0000      0.3745      0.0947      1.0000      0.0947      0.7471      0.2529      0.0000      2.0368   -999.0000      1.0000   6208.3335   6328.5527      1.0000   2146.1860      1.0000  12645.3223   -999.0000      0.4321      0.2958
      1878.0     51.5180    -61.8090      0.4780      1.4610     10.7680   -999.0000      0.3677      0.1155      1.0000      0.1155      0.6859      0.3141      0.0000      2.0477   -999.0000      1.0000   6270.8335   6362.6182      1.0000   2231.8037      1.0000  12840.6885   -999.0000      0.4275      0.2822
      1878.5     48.6460    -60.7180      0.4900      1.7170     10.7940   -999.0000      0.3641      0.1497      1.0000      0.1497      0.5888      0.4112      0.0000      2.0529   -999.0000      1.0000   6333.3335   6477.7329      1.0000   2283.4360      1.0000  13001.8682   -999.0000      0.4253      0.2607
      1879.0     46.8970    -58.8760      0.5010      1.8850     10.7790   -999.0000      0.3614      0.1684      1.0000      0.1684      0.5340      0.4660      0.0000      2.0571   -999.0000      1.0000   6416.6665   6564.9536      1.0000   2329.9053      1.0000  13200.0449   -999.0000      0.4241      0.2485
      1879.5     50.1590    -56.6420      0.5220      1.9190     10.7290   -999.0000      0.3594      0.1231      1.0000      0.1231      0.6574      0.3426      0.0000      2.0612   -999.0000      1.0000   6458.3335   6562.1963      1.0000   2355.7212      1.0000  13312.1133   -999.0000      0.4233      0.2759
      1880.0     53.9110    -53.5760      0.5450      1.9560     10.6390   -999.0000      0.3559      0.0818      1.0000      0.0818      0.7701      0.2299      0.0000      2.0677   -999.0000      1.0000   6437.5000   6465.7544      1.0000   2314.7312      1.0000  13310.7676   -999.0000      0.4258      0.3009
      1880.5     54.9820    -49.6260      0.5690      1.8660     10.4900   -999.0000      0.3486      0.0674      1.0000      0.0674      0.8065      0.1935      0.0000      2.0800   -999.0000      1.0000   6458.3335   6222.8911      1.0000   2330.2209      1.0000  13433.5225   -999.0000      0.4252      0.3090
      1881.0     52.0680    -44.8770      0.5950      1.5090     10.3810   -999.0000      0.3372      0.0791      1.0000      0.0791      0.7655      0.2345      0.0000      2.0987   -999.0000      1.0000   6520.8335   6170.4019      1.0000   2397.3430      1.0000  13685.4150   -999.0000      0.4219      0.2999
      1881.5     48.6440    -40.1170      0.6210      1.1930     10.3710   -999.0000      0.3263      0.1090      1.0000      0.1090      0.6660      0.3340      0.0000      2.1162   -999.0000      1.0000   6708.3335   6669.7349      1.0000   2567.4143      1.0000  14195.9668   -999.0000      0.4142      0.2778
      1882.0     47.3040    -35.5330      0.6490      0.9430     10.3610   -999.0000      0.3202      0.1166      1.0000      0.1166      0.6359      0.3641      0.0000      2.1259   -999.0000      1.0000   6937.5000   6907.0312      1.0000   2711.9849      1.0000  14748.6777   -999.0000      0.4098      0.2711
      1882.5     48.8120    -31.4380      0.6770      0.8260     10.3260   -999.0000      0.3160      0.0934      1.0000      0.0934      0.7044      0.2956      0.0000      2.1334   -999.0000      1.0000   7104.1665   7133.4814      1.0000   2764.4214      1.0000  15155.6865   -999.0000      0.4108      0.2863
      1883.0     52.6680    -29.6620      0.7080      0.7360     10.2740   -999.0000      0.3125      0.0517      1.0000      0.0517      0.8347      0.1653      0.0000      2.1401   -999.0000      1.0000   7145.8335   7242.3882      1.0000   2755.0405      1.0000  15292.9443   -999.0000      0.4127      0.3152
      1883.5     56.4840    -28.7770      0.7390      0.7650     10.2230   -999.0000      0.3092      0.0263      1.0000      0.0263      0.9150      0.0850      0.0000      2.1461   -999.0000      1.0000   7125.0000   7184.0112      1.0000   2694.3108      1.0000  15290.7217   -999.0000      0.4166      0.3331
      1884.0     58.2880    -27.9600      0.7720      0.7940     10.2070   -999.0000      0.3057      0.0139      1.0000      0.0139      0.9544      0.0456      0.0000      2.1522   -999.0000      1.0000   7083.3335   7092.0474      1.0000   2674.2244      1.0000  15244.7822   -999.0000      0.4169      0.3418
      1884.5     60.2030    -27.1360      0.8060      0.8240     10.2210   -999.0000      0.3037      0.0012      1.0000      0.0012      0.9961      0.0039      0.0000      2.1559   -999.0000      1.0000   7062.5000   7032.6953      1.0000   2650.8914      1.0000  15225.8721   -999.0000      0.4180      0.3510
      1885.0     62.2350    -25.7420      0.8420      0.8560     10.2350   -999.0000      0.3040      0.0000      1.0000      0.0000      1.0000      0.0000      0.0000      2.1554   -999.0000      1.0000   7028.1973   7028.1973      0.0000   2636.5547      1.0000  15148.5098   -999.0000      0.4181      0.3519
      1885.5     63.4220    -24.3470      0.8800      0.8420     10.2490   -999.0000      0.3043      0.0000      1.0000      0.0000      1.0000      0.0000      0.0000      2.1548   -999.0000      1.0000   7023.8535   7023.8535      0.0000   2628.2981      1.0000  15135.1514   -999.0000      0.4186      0.3519
      1886.0     62.5010    -22.9590      0.9180      0.8310     10.2630   -999.0000      0.3041      0.0000      1.0000      0.0000      1.0000      0.0000      0.0000      2.1552   -999.0000      1.0000   7028.2461   7028.2461      0.0000   2632.2480      1.0000  15147.3711   -999.0000      0.4184      0.3519
      1886.5     62.3510    -21.5830      0.9460      0.9140     10.2760   -999.0000      0.3023      0.0000      1.0000      0.0000      1.0000      0.0000      0.0000      2.1582   -999.0000      1.0000   7044.5850   7044.5850      0.0000   2641.2019      1.0000  15203.8887   -999.0000      0.4182      0.3519
      1887.0     64.9080    -20.3940      0.9750      0.9890     10.2950   -999.0000      0.2986      0.0000      1.0000      0.0000      1.0000      0.0000      0.0000      2.1644   -999.0000      1.0000   7061.0000   7061.0000      0.0000   2657.2717      1.0000  15282.7334   -999.0000      0.4175      0.3519
      1887.5     68.1330    -20.0820      1.0070      1.0270     10.3140   -999.0000      0.2932      0.0000      1.0000      0.0000      1.0000      0.0000      0.0000      2.1733   -999.0000      1.0000   7094.9160   7094.9160      0.0000   2685.1379      1.0000  15419.4795   -999.0000      0.4164      0.3519
