~Version Information Section
VERS.          2.0                                     : CWLS LOG ASCII Standard
WRAP.          NO                                      : One line per depth step
~Well Information Section
STRT.FT        900.0                                   : Start Depth
STOP.FT        5500.0                                  : Stop Depth
STEP.FT        0.5                                     : Step
NULL.          -999.0000                               : Null Value
COMP.          UNION TEXAS PETROLEUM CORP              : Company
WELL.          FEE #989                                : Well
FLD .          SULPHUR MINES                           : Field
LOC .                                                  : Location
LOC1.                                                  : Location 1
CTRY.          USA                                     : Country
STAT.          LOUISIANA                               : State
CNTY.          CALCASIEU                               : County
UWI .          170192138600                            : UWI Number
API .          170192138600                            : API Number
SECT.          29                                      : Section
TOWN.          9S                                      : Township
RNGE.          10W                                     : Range
PDAT.          BHF                                     : Perm Datum
EPD .          12.5                                    : Elevation
LMF .          RKB                                     : Log Measured From
DMF .          RKB                                     : Drill Measured From
APD .          15.5                                    : Above Perm Datum
EKB .          28                                      : Elev-Kelly Bushing.
EDF .          27                                      : Elev-Drill Floor
EGL .          12.5                                    : Elev-Ground Level
SRVC.          Petcom, Inc.                            : Service Company
DATE.          18 Oct 2018 @ 20:09                     : Date
~Parameter Information Section
RUN .          1                                       : Run #
DATE.          22 JAN 1985                             : Date log was run
TDD .          5473                                    : Depth - Driller
TDL .          5476                                    : Depth - Logger
BLI .          5472                                    : Bottom Log Interval
TLI .          1027                                    : Top Log Interval
CBD .          9 5/8" @ 1030'                          : Casing - Driller
CBL .          1027                                    : Casing - Logger
BS  .          8.5                                     : Bit Size
DFT .          LIGNOSULFATE                            : Type of Fluid In Hole
DFD .          9.6                                     : Drilling Fluid Density
DFV .          51                                      : Drilling Fluid Viscosity
DFPH.          11.0                                    : Drilling Fluid pH
DFL .          6.0                                     : Drilling Fluid Loss
MSS .          MUD PIT                                 : Source of Sample
RMS .          2.21                                    : Mud Resitivity
MST .          40                                      : Rm Temperature
RMFS.          1.66                                    : Mud Filtrate Resistivity
MFST.          40                                      : Rmf Temperature
RMCS.          3.32                                    : Mud Cake Resitivity
MCST.          40                                      : Rmc Temperature
MFSS.          CALC                                    : Source of Rmf
MCSS.          CALC                                    : Source of Rmc
RMBH.          0.792                                   : Rm at BHT
BHT .          124                                     : Bottom Hole Temperature
MRT .          124 DEGF                                : Max Recorded Temperature
RUN .          2                                       : Run #
DATE.                                                  : Date log was run
TDD .                                                  : Depth - Driller
TDL .                                                  : Depth - Logger
BLI .                                                  : Bottom Log Interval
TLI .                                                  : Top Log Interval
CBD .                                                  : Casing - Driller
CBL .                                                  : Casing - Logger
BS  .                                                  : Bit Size
DFT .                                                  : Type of Fluid In Hole
DFD .                                                  : Drilling Fluid Density
DFV .                                                  : Drilling Fluid Viscosity
DFPH.                                                  : Drilling Fluid pH
DFL .                                                  : Drilling Fluid Loss
MSS .                                                  : Source of Sample
RMS .                                                  : Mud Resitivity
MST .                                                  : Rm Temperature
RMFS.                                                  : Mud Filtrate Resistivity
MFST.                                                  : Rmf Temperature
RMCS.                                                  : Mud Cake Resitivity
MCST.                                                  : Rmc Temperature
MFSS.                                                  : Source of Rmf
MCSS.                                                  : Source of Rmc
RMBH.                                                  : Rm at BHT
BHT .                                                  : Bottom Hole Temperature
MRT .                                                  : Max Recorded Temperature
RUN .          3                                       : Run #
DATE.                                                  : Date log was run
TDD .                                                  : Depth - Driller
TDL .                                                  : Depth - Logger
BLI .                                                  : Bottom Log Interval
TLI .                                                  : Top Log Interval
CBD .                                                  : Casing - Driller
CBL .                                                  : Casing - Logger
BS  .                                                  : Bit Size
DFT .                                                  : Type of Fluid In Hole
DFD .                                                  : Drilling Fluid Density
DFV .                                                  : Drilling Fluid Viscosity
DFPH.                                                  : Drilling Fluid pH
DFL .                                                  : Drilling Fluid Loss
MSS .                                                  : Source of Sample
RMS .                                                  : Mud Resitivity
MST .                                                  : Rm Temperature
RMFS.                                                  : Mud Filtrate Resistivity
MFST.                                                  : Rmf Temperature
RMCS.                                                  : Mud Cake Resitivity
MCST.                                                  : Rmc Temperature
MFSS.                                                  : Source of Rmf
MCSS.                                                  : Source of Rmc
RMBH.                                                  : Rm at BHT
BHT .                                                  : Bottom Hole Temperature
MRT .                                                  : Max Recorded Temperature
~Curve Information Section
DEPTH.FT                                               : 
GR.GAPI                                                : 
SP.mV                                                  : 
RES_D.OHMM                                             : 
RES_S.OHMM                                             : 
CALI.IN                                                : 
NPHI_SS.DEC                                            : 
PHIT.DEC                                               : 
PHIE.DEC                                               : 
SW.DEC                                                 : 
BVW.DEC                                                : 
SHALE.DEC                                              : 
SAND.DEC                                               : 
LS.DEC                                                 : 
RHOB.G/CC                                              : 
RHOB_ORG.G/CC                                          : 
DEN_FLAG.                                              : 
VP.FT/S                                                : 
VP_ORG.FT/S                                            : 
VP_FLAG.                                               : 
VS.FT/S                                                : 
VS_FLAG.                                               : 
AI.                                                    : 
AI_ORG.                                                : 
PR.                                                    : 
PRFRAME.                                               : 
~ASCII Log Data Section
# ...
      1004.0     44.9620    -49.1520     27.8230      1.1850   -999.0000   -999.0000      0.3456      0.0596      1.0000      0.0596      0.8276      0.1724      0.0000      2.0852   -999.0000      1.0000   6434.2197   6434.2197      0.0000   2250.9512      1.0000  13416.7520   -999.0000      0.4303      0.3137
      1004.5     44.3120    -52.6980    326.3990      2.0650   -999.0000   -999.0000      0.3451      0.0992      1.0000      0.0992      0.7126      0.2874      0.0000      2.0853   -999.0000      1.0000   6430.2480   6430.2480      0.0000   2299.3416      1.0000  13409.1309   -999.0000      0.4267      0.2881
      1005.0     42.0010    -55.3370   1511.0380      2.4180   -999.0000   -999.0000      0.3454      0.1072      1.0000      0.1072      0.6897      0.3103      0.0000      2.0846   -999.0000      1.0000   6426.9419   6426.9419      0.0000   2349.0696      1.0000  13397.7363   -999.0000      0.4229      0.2830
      1005.5     40.5390    -56.5790   1489.9230      2.0770   -999.0000   -999.0000      0.3467      0.1036      1.0000      0.1036      0.7011      0.2989      0.0000      2.0826   -999.0000      1.0000   6428.4707   6428.4707      0.0000   2349.0081      1.0000  13387.8770   -999.0000      0.4230      0.2856
      1006.0     41.4260    -57.0150    834.1690     31.7440   -999.0000   -999.0000      0.3485      0.0961      1.0000      0.0961      0.7241      0.2759      0.0000      2.0796   -999.0000      1.0000   6430.0000   6430.0000      0.0000   2350.1350      1.0000  13372.1152   -999.0000      0.4229      0.2907
      1006.5     44.1120    -57.4320     84.7550    790.3260   -999.0000   -999.0000      0.3508      0.0726      1.0000      0.0726      0.7931      0.2069      0.0000      2.0763   -999.0000      1.0000   6431.4888   6431.4888      0.0000   2287.0225      1.0000  13353.6064   -999.0000      0.4276      0.3060
      1007.0     46.8100    -57.7820     43.9380   1788.6300   -999.0000   -999.0000      0.3530      0.0568      1.0000      0.0568      0.8391      0.1609      0.0000      2.0730   -999.0000      1.0000   6378.6899   6378.6899      0.0000   2200.1775      1.0000  13223.1104   -999.0000      0.4325      0.3162
      1007.5     47.9410    -58.1320     36.4310   2008.5930   -999.0000   -999.0000      0.3537      0.0407      1.0000      0.0407      0.8851      0.1149      0.0000      2.0721   -999.0000      1.0000   6281.8018   6281.8018      0.0000   2094.9004      1.0000  13016.7080   -999.0000      0.4374      0.3264
      1008.0     47.4870    -58.4820     33.2230   1981.0260   -999.0000   -999.0000      0.3558      0.0327      1.0000      0.0327      0.9080      0.0920      0.0000      2.0688   -999.0000      1.0000   6206.8623   6206.8623      0.0000   2044.9342      1.0000  12840.5830   -999.0000      0.4391      0.3315
      1008.5     47.2410    -58.8310     31.1600   1899.4041   -999.0000   -999.0000      0.3577      0.0493      1.0000      0.0493      0.8621      0.1379      0.0000      2.0653   -999.0000      1.0000   6171.3921   6171.3921      0.0000   2019.0194      1.0000  12745.8438   -999.0000      0.4401      0.3213
      1009.0     48.0550    -58.9460     33.7250    702.4360   -999.0000   -999.0000      0.3598      0.0579      1.0000      0.0579      0.8391      0.1609      0.0000      2.0617   -999.0000      1.0000   6174.2876   6174.2876      0.0000   2010.7361      1.0000  12729.8135   -999.0000      0.4407      0.3162
      1009.5     49.8580    -58.6800     38.4880     16.8040   -999.0000   -999.0000      0.3616      0.0540      1.0000      0.0540      0.8506      0.1494      0.0000      2.0588   -999.0000      1.0000   6172.4966   6172.4966      0.0000   2009.4427      1.0000  12707.6768   -999.0000      0.4407      0.3188
      1010.0     51.5570    -57.9460    112.9750      3.1390   -999.0000   -999.0000      0.3626      0.0459      1.0000      0.0459      0.8736      0.1264      0.0000      2.0572   -999.0000      1.0000   6166.0264   6166.0264      0.0000   2005.8951      1.0000  12684.7637   -999.0000      0.4408      0.3239
      1010.5     53.2580    -57.2080    498.4820      5.2040   -999.0000   -999.0000      0.3628      0.0375      1.0000      0.0375      0.8966      0.1034      0.0000      2.0570   -999.0000      1.0000   6159.5698   6159.5698      0.0000   2001.2173      1.0000  12670.3496   -999.0000      0.4410      0.3290
      1011.0     54.9600    -56.4700    862.4420     10.2780   -999.0000   -999.0000      0.3623      0.0208      1.0000      0.0208      0.9425      0.0575      0.0000      2.0581   -999.0000      1.0000   6153.0889   6153.0889      0.0000   1996.5127      1.0000  12663.8867   -999.0000      0.4412      0.3392
      1011.5     56.6620    -55.7330   1016.3160    138.4070   -999.0000   -999.0000      0.3613      0.0125      1.0000      0.0125      0.9655      0.0345      0.0000      2.0601   -999.0000      1.0000   6146.5083   6146.5083      0.0000   1997.0433      1.0000  12662.1777   -999.0000      0.4410      0.3443
      1012.0     58.3640    -54.9920     62.1030    842.7210   -999.0000   -999.0000      0.3597      0.0083      1.0000      0.0083      0.9770      0.0230      0.0000      2.0627   -999.0000      1.0000   6161.7710   6161.7710      0.0000   2006.5952      1.0000  12709.7852   -999.0000      0.4407      0.3468
      1012.5     60.0660    -54.1070     27.5080   1508.0630   -999.0000   -999.0000      0.3580      0.0041      1.0000      0.0041      0.9885      0.0115      0.0000      2.0657   -999.0000      1.0000   6192.7173   6192.7173      0.0000   2033.3314      1.0000  12792.1768   -999.0000      0.4396      0.3494
      1013.0     61.7690    -53.1150     26.2150    952.2170   -999.0000   -999.0000      0.3563      0.0041      1.0000      0.0041      0.9885      0.0115      0.0000      2.0684   -999.0000      1.0000   6257.4307   6257.4307      0.0000   2072.3259      1.0000  12943.0078   -999.0000      0.4384      0.3494
      1013.5     62.6610    -52.1250     25.3430     55.3650   -999.0000   -999.0000      0.3549      0.0000      1.0000      0.0000      1.0000      0.0000      0.0000      2.0708   -999.0000      1.0000   6323.5503   6323.5503      0.0000   2116.6912      1.0000  13094.7900   -999.0000      0.4369      0.3519
      1014.0     57.1330    -51.1340     27.4620      1.1030   -999.0000   -999.0000      0.3537      0.0000      1.0000      0.0000      1.0000      0.0000      0.0000      2.0728   -999.0000      1.0000   6376.7783   6376.7783      0.0000   2150.9863      1.0000  13217.8584   -999.0000      0.4358      0.3519
      1014.5     51.1580    -50.1450    154.1580      2.9220   -999.0000   -999.0000      0.3542      0.0000      1.0000      0.0000      1.0000      0.0000      0.0000      2.0720   -999.0000      1.0000   6399.7134   6399.7134      0.0000   2162.8367      1.0000  13260.0400   -999.0000      0.4355      0.3519
      1015.0     45.1790    -48.9620   1028.7321      4.2530   -999.0000   -999.0000      0.3533      0.0081      1.0000      0.0081      0.9770      0.0230      0.0000      2.0734   -999.0000      1.0000   6372.7144   6372.7144      0.0000   2153.2717      1.0000  13213.1416   -999.0000      0.4356      0.3468
      1015.5     39.2000    -47.7280    800.5570      4.0260   -999.0000   -999.0000      0.3520      0.0607      1.0000      0.0607      0.8276      0.1724      0.0000      2.0746   -999.0000      1.0000   6337.0957   6337.0957      0.0000   2179.9709      1.0000  13146.8135   -999.0000      0.4329      0.3137
      1016.0     33.2170    -46.4950    508.6690    880.5180   -999.0000   -999.0000      0.3512      0.1050      1.0000      0.1050      0.7011      0.2989      0.0000      2.0750   -999.0000      1.0000   6301.9917   6301.9917      0.0000   2207.2063      1.0000  13076.8281   -999.0000      0.4301      0.2856
      1016.5     27.6670    -45.2630    684.6630   2030.5890   -999.0000   -999.0000      0.3512      0.1332      1.0000      0.1332      0.6207      0.3793      0.0000      2.0745   -999.0000      1.0000   6277.8975   6277.8975      0.0000   2249.1755      1.0000  13023.3613   -999.0000      0.4264      0.2677
