~Version Information Section
VERS.          2.0                                     : CWLS LOG ASCII Standard
WRAP.          NO                                      : One line per depth step
~Well Information Section
STRT.FT        900.0                                   : Start Depth
STOP.FT        5500.0                                  : Stop Depth
STEP.FT        0.5                                     : Step
NULL.          -999.0000                               : Null Value
COMP.          UNION TEXAS PETROLEUM CORP              : Company
WELL.          FEE #989                                : Well
FLD .          SULPHUR MINES                           : Field
LOC .                                                  : Location
LOC1.                                                  : Location 1
CTRY.          USA                                     : Country
STAT.          LOUISIANA                               : State
CNTY.          CALCASIEU                               : County
UWI .          170192138600                            : UWI Number
API .          170192138600                            : API Number
SECT.          29                                      : Section
TOWN.          9S                                      : Township
RNGE.          10W                                     : Range
PDAT.          BHF                                     : Perm Datum
EPD .          12.5                                    : Elevation
LMF .          RKB                                     : Log Measured From
DMF .          RKB                                     : Drill Measured From
APD .          15.5                                    : Above Perm Datum
EKB .          28                                      : Elev-Kelly Bushing.
EDF .          27                                      : Elev-Drill Floor
EGL .          12.5                                    : Elev-Ground Level
SRVC.          Petcom, Inc.                            : Service Company
DATE.          18 Oct 2018 @ 20:09                     : Date
~Parameter Information Section
RUN .          1                                       : Run #
DATE.          22 JAN 1985                             : Date log was run
TDD .          5473                                    : Depth - Driller
TDL .          5476                                    : Depth - Logger
BLI .          5472                                    : Bottom Log Interval
TLI .          1027                                    : Top Log Interval
CBD .          9 5/8" @ 1030'                          : Casing - Driller
CBL .          1027                                    : Casing - Logger
BS  .          8.5                                     : Bit Size
DFT .          LIGNOSULFATE                            : Type of Fluid In Hole
DFD .          9.6                                     : Drilling Fluid Density
DFV .          51                                      : Drilling Fluid Viscosity
DFPH.          11.0                                    : Drilling Fluid pH
DFL .          6.0                                     : Drilling Fluid Loss
MSS .          MUD PIT                                 : Source of Sample
RMS .          2.21                                    : Mud Resitivity
MST .          40                                      : Rm Temperature
RMFS.          1.66                                    : Mud Filtrate Resistivity
MFST.          40                                      : Rmf Temperature
RMCS.          3.32                                    : Mud Cake Resitivity
MCST.          40                                      : Rmc Temperature
MFSS.          CALC                                    : Source of Rmf
MCSS.          CALC                                    : Source of Rmc
RMBH.          0.792                                   : Rm at BHT
BHT .          124                                     : Bottom Hole Temperature
MRT .          124 DEGF                                : Max Recorded Temperature
RUN .          2                                       : Run #
DATE.                                                  : Date log was run
TDD .                                                  : Depth - Driller
TDL .                                                  : Depth - Logger
BLI .                                                  : Bottom Log Interval
TLI .                                                  : Top Log Interval
CBD .                                                  : Casing - Driller
CBL .                                                  : Casing - Logger
BS  .                                                  : Bit Size
DFT .                                                  : Type of Fluid In Hole
DFD .                                                  : Drilling Fluid Density
DFV .                                                  : Drilling Fluid Viscosity
DFPH.                                                  : Drilling Fluid pH
DFL .                                                  : Drilling Fluid Loss
MSS .                                                  : Source of Sample
RMS .                                                  : Mud Resitivity
MST .                                                  : Rm Temperature
RMFS.                                                  : Mud Filtrate Resistivity
MFST.                                                  : Rmf Temperature
RMCS.                                                  : Mud Cake Resitivity
MCST.                                                  : Rmc Temperature
MFSS.                                                  : Source of Rmf
MCSS.                                                  : Source of Rmc
RMBH.                                                  : Rm at BHT
BHT .                                                  : Bottom Hole Temperature
MRT .                                                  : Max Recorded Temperature
RUN .          3                                       : Run #
DATE.                                                  : Date log was run
TDD .                                                  : Depth - Driller
TDL .                                                  : Depth - Logger
BLI .                                                  : Bottom Log Interval
TLI .                                                  : Top Log Interval
CBD .                                                  : Casing - Driller
CBL .                                                  : Casing - Logger
BS  .                                                  : Bit Size
DFT .                                                  : Type of Fluid In Hole
DFD .                                                  : Drilling Fluid Density
DFV .                                                  : Drilling Fluid Viscosity
DFPH.                                                  : Drilling Fluid pH
DFL .                                                  : Drilling Fluid Loss
MSS .                                                  : Source of Sample
RMS .                                                  : Mud Resitivity
MST .                                                  : Rm Temperature
RMFS.                                                  : Mud Filtrate Resistivity
MFST.                                                  : Rmf Temperature
RMCS.                                                  : Mud Cake Resitivity
MCST.                                                  : Rmc Temperature
MFSS.                                                  : Source of Rmf
MCSS.                                                  : Source of Rmc
RMBH.                                                  : Rm at BHT
BHT .                                                  : Bottom Hole Temperature
MRT .                                                  : Max Recorded Temperature
~Curve Information Section
DEPTH.FT                                               : 
GR.GAPI                                                : 
SP.mV                                                  : 
RES_D.OHMM                                             : 
RES_S.OHMM                                             : 
CALI.IN                                                : 
NPHI_SS.DEC                                            : 
PHIT.DEC                                               : 
PHIE.DEC                                               : 
SW.DEC                                                 : 
BVW.DEC                                                : 
SHALE.DEC                                              : 
SAND.DEC                                               : 
LS.DEC                                                 : 
RHOB.G/CC                                              : 
RHOB_ORG.G/CC                                          : 
DEN_FLAG.                                              : 
VP.FT/S                                                : 
VP_ORG.FT/S                                            : 
VP_FLAG.                                               : 
VS.FT/S                                                : 
VS_FLAG.                                               : 
AI.                                                    : 
AI_ORG.                                                : 
PR.                                                    : 
PRFRAME.                                               : 
~ASCII Log Data Section
# ...
      4215.0     48.8770    -71.5040      0.3650      0.8990     12.0130   -999.0000      0.3170      0.2131      1.0000      0.2131      0.3278      0.6722      0.0000      2.1292   -999.0000      1.0000   7187.5220   7187.5220      0.0000   2901.1826      1.0000  15303.4697   -999.0000      0.4027      0.2027
      4215.5     46.4040    -72.2570      0.3530      0.8800     12.5560   -999.0000      0.3169      0.2216      1.0000      0.2216      0.3009      0.6991      0.0000      2.1291   -999.0000      1.0000   7202.1201   7202.1201      0.0000   2991.5605      1.0000  15334.2822   -999.0000      0.3957      0.1968
      4216.0     47.2100    -72.5600      0.3530      0.8650     12.9990   -999.0000      0.3194      0.2211      1.0000      0.2211      0.3076      0.6924      0.0000      2.1251   -999.0000      1.0000   7720.4575   7720.4575      0.0000   3230.0737      1.0000  16407.1289   -999.0000      0.3939      0.1983
      4216.5     49.4770    -72.8680      0.3530      0.8490     13.2570   -999.0000      0.3207      0.2152      1.0000      0.2152      0.3290      0.6710      0.0000      2.1231   -999.0000      1.0000   8117.6733   8117.6733      0.0000   3471.1487      1.0000  17234.6816   -999.0000      0.3881      0.2030
      4217.0     50.4730    -73.1750      0.3570      0.8360     13.2890   -999.0000      0.3213      0.2127      1.0000      0.2127      0.3381      0.6619      0.0000      2.1221   -999.0000      1.0000   8142.2612   8142.2612      0.0000   3533.7297      1.0000  17278.6562   -999.0000      0.3840      0.2050
      4217.5     49.8280    -72.6680      0.3650      0.8320     13.2720   -999.0000      0.3210      0.2140      1.0000      0.2140      0.3333      0.6667      0.0000      2.1225   -999.0000      1.0000   7964.5103   7964.5103      0.0000   3424.9592      1.0000  16904.9277   -999.0000      0.3866      0.2040
      4218.0     49.4660    -71.9040      0.3730      0.8280     13.0110   -999.0000      0.3199      0.2136      1.0000      0.2136      0.3323      0.6677      0.0000      2.1244   -999.0000      1.0000   7693.4917   7693.4917      0.0000   3247.8623      1.0000  16344.4365   -999.0000      0.3916      0.2038
      4218.5     51.6510    -70.4780      0.3880      0.8260     12.6710   -999.0000      0.3210      0.2055      1.0000      0.2055      0.3598      0.6402      0.0000      2.1228   -999.0000      1.0000   7451.6201   7451.6201      0.0000   3070.5132      1.0000  15818.6572   -999.0000      0.3977      0.2099
      4219.0     54.4470    -67.9080      0.4060      0.8900     12.3280   -999.0000      0.3236      0.1946      1.0000      0.1946      0.3987      0.6013      0.0000      2.1187   -999.0000      1.0000   7272.8862   7272.8862      0.0000   2937.2798      1.0000  15409.0830   -999.0000      0.4026      0.2185
      4219.5     57.2340    -65.3260      0.4240      0.9440     12.1760   -999.0000      0.3257      0.1829      1.0000      0.1829      0.4386      0.5614      0.0000      2.1155   -999.0000      1.0000   7173.9102   7173.9102      0.0000   2905.3586      1.0000  15176.3857   -999.0000      0.4019      0.2273
      4220.0     60.0190    -62.7470      0.4430      0.9960     12.1520   -999.0000      0.3270      0.1702      1.0000      0.1702      0.4796      0.5204      0.0000      2.1137   -999.0000      1.0000   7327.1343   7327.1343      0.0000   2986.1951      1.0000  15487.1514   -999.0000      0.4004      0.2364
      4220.5     62.7930    -60.1650      0.4630      0.9320     12.0370   -999.0000      0.3271      0.1498      1.0000      0.1498      0.5421      0.4579      0.0000      2.1139   -999.0000      1.0000   7518.3452   7518.3452      0.0000   3127.2463      1.0000  15893.1602   -999.0000      0.3954      0.2503
      4221.0     63.7030    -57.5540      0.4840      0.7820     11.9050   -999.0000      0.3213      0.1384      1.0000      0.1384      0.5693      0.4307      0.0000      2.1237   -999.0000      1.0000   7658.9028   7658.9028      0.0000   3257.9956      1.0000  16265.1494   -999.0000      0.3895      0.2563
      4221.5     62.3370    -52.7010      0.5060      0.7910     11.6840   -999.0000      0.3129      0.1379      1.0000      0.1379      0.5594      0.4406      0.0000      2.1375   -999.0000      1.0000   7775.8687   7775.8687      0.0000   3312.6025      1.0000  16621.2109   -999.0000      0.3891      0.2542
      4222.0     60.9760    -47.1880      0.5300      0.8590     11.3630   -999.0000      0.3023      0.1354      1.0000      0.1354      0.5520      0.4480      0.0000      2.1551   -999.0000      1.0000   7738.6807   7738.6807      0.0000   3315.7334      1.0000  16677.7461   -999.0000      0.3876      0.2525
      4222.5     60.1540    -41.1590      0.5480      0.9430     11.0390   -999.0000      0.2918      0.1292      1.0000      0.1292      0.5574      0.4426      0.0000      2.1725   -999.0000      1.0000   7671.5352   7671.5352      0.0000   3305.0337      1.0000  16666.4980   -999.0000      0.3860      0.2537
      4223.0     61.6660    -35.1320      0.5690      0.8840     10.8990   -999.0000      0.2818      0.1104      1.0000      0.1104      0.6082      0.3918      0.0000      2.1894   -999.0000      1.0000   7732.6963   7732.6963      0.0000   3358.0981      1.0000  16930.1895   -999.0000      0.3838      0.2650
      4223.5     62.1240    -29.2850      0.5900      0.8090     10.9270   -999.0000      0.2735      0.0991      1.0000      0.0991      0.6379      0.3613      0.0008      2.2033   -999.0000      1.0000   7952.7925   7952.7925      0.0000   3496.8862      1.0000  17522.5352   -999.0000      0.3802      0.2717
      4224.0     62.5580    -23.8770      0.6120      0.7360     10.7950   -999.0000      0.2670      0.0893      1.0000      0.0893      0.6655      0.3308      0.0036      2.2145   -999.0000      1.0000   8231.5361   8231.5361      0.0000   3659.6064      1.0000  18228.4551   -999.0000      0.3768      0.2784
      4224.5     62.9930    -18.8760      0.6350      0.7360     10.5170   -999.0000      0.2609      0.0804      1.0000      0.0804      0.6918      0.2946      0.0136      2.2252   -999.0000      1.0000   8389.2617   8389.2617      0.0000   3739.7654      1.0000  18668.0039   -999.0000      0.3760      0.2861
      4225.0     64.1660    -14.7660      0.6550      0.7680      9.9110   -999.0000      0.2540      0.0687      1.0000      0.0687      0.7295      0.2472      0.0233      2.2374   -999.0000      1.0000   8276.2275   8276.2275      0.0000   3709.3440      1.0000  18517.0938   -999.0000      0.3743      0.2962
      4225.5     64.8780    -11.9900      0.6740      0.7980      9.4870   -999.0000      0.2509      0.0619      1.0000      0.0619      0.7533      0.2185      0.0282      2.2429   -999.0000      1.0000   8108.7876   8108.7876      0.0000   3599.9651      1.0000  18187.2305   -999.0000      0.3773      0.3025
      4226.0     63.7590    -10.1250      0.6940      0.8290      9.2650   -999.0000      0.2485      0.0652      1.0000      0.0652      0.7378      0.2324      0.0298      2.2469   -999.0000      1.0000   7947.9253   7947.9253      0.0000   3499.5454      1.0000  17858.0078   -999.0000      0.3798      0.2993
      4226.5     62.8550     -8.5100      0.7140      0.8410      9.1650   -999.0000      0.2475      0.0679      1.0000      0.0679      0.7256      0.2413      0.0330      2.2486   -999.0000      1.0000   7871.0410   7871.0410      0.0000   3458.6296      1.0000  17699.0410   -999.0000      0.3804      0.2972
      4227.0     63.7120     -7.4940      0.7350      0.8210      9.0810   -999.0000      0.2472      0.0628      1.0000      0.0628      0.7462      0.2208      0.0330      2.2492   -999.0000      1.0000   7943.6948   7943.6948      0.0000   3479.7539      1.0000  17866.9004   -999.0000      0.3813      0.3018
      4227.5     65.6020     -7.1760      0.7560      0.8400      9.0390   -999.0000      0.2481      0.0534      1.0000      0.0534      0.7846      0.1823      0.0330      2.2481   -999.0000      1.0000   8033.1606   8033.1606      0.0000   3473.7776      1.0000  18059.2441   -999.0000      0.3850      0.3103
