~Version Information Section
VERS.          2.0                                     : CWLS LOG ASCII Standard
WRAP.          NO                                      : One line per depth step
~Well Information Section
STRT.FT        900.0                                   : Start Depth
STOP.FT        5500.0                                  : Stop Depth
STEP.FT        0.5                                     : Step
NULL.          -999.0000                               : Null Value
COMP.          UNION TEXAS PETROLEUM CORP              : Company
WELL.          FEE #989                                : Well
FLD .          SULPHUR MINES                           : Field
LOC .                                                  : Location
LOC1.                                                  : Location 1
CTRY.          USA                                     : Country
STAT.          LOUISIANA                               : State
CNTY.          CALCASIEU                               : County
UWI .          170192138600                            : UWI Number
API .          170192138600                            : API Number
SECT.          29                                      : Section
TOWN.          9S                                      : Township
RNGE.          10W                                     : Range
PDAT.          BHF                                     : Perm Datum
EPD .          12.5                                    : Elevation
LMF .          RKB                                     : Log Measured From
DMF .          RKB                                     : Drill Measured From
APD .          15.5                                    : Above Perm Datum
EKB .          28                                      : Elev-Kelly Bushing.
EDF .          27                                      : Elev-Drill Floor
EGL .          12.5                                    : Elev-Ground Level
SRVC.          Petcom, Inc.                            : Service Company
DATE.          18 Oct 2018 @ 20:09                     : Date
~Parameter Information Section
RUN .          1                                       : Run #
DATE.          22 JAN 1985                             : Date log was run
TDD .          5473                                    : Depth - Driller
TDL .          5476                                    : Depth - Logger
BLI .          5472                                    : Bottom Log Interval
TLI .          1027                                    : Top Log Interval
CBD .          9 5/8" @ 1030'                          : Casing - Driller
CBL .          1027                                    : Casing - Logger
BS  .          8.5                                     : Bit Size
DFT .          LIGNOSULFATE                            : Type of Fluid In Hole
DFD .          9.6                                     : Drilling Fluid Density
DFV .          51                                      : Drilling Fluid Viscosity
DFPH.          11.0                                    : Drilling Fluid pH
DFL .          6.0                                     : Drilling Fluid Loss
MSS .          MUD PIT                                 : Source of Sample
RMS .          2.21                                    : Mud Resitivity
MST .          40                                      : Rm Temperature
RMFS.          1.66                                    : Mud Filtrate Resistivity
MFST.          40                                      : Rmf Temperature
RMCS.          3.32                                    : Mud Cake Resitivity
MCST.          40                                      : Rmc Temperature
MFSS.          CALC                                    : Source of Rmf
MCSS.          CALC                                    : Source of Rmc
RMBH.          0.792                                   : Rm at BHT
BHT .          124                                     : Bottom Hole Temperature
MRT .          124 DEGF                                : Max Recorded Temperature
RUN .          2                                       : Run #
DATE.                                                  : Date log was run
TDD .                                                  : Depth - Driller
TDL .                                                  : Depth - Logger
BLI .                                                  : Bottom Log Interval
TLI .                                                  : Top Log Interval
CBD .                                                  : Casing - Driller
CBL .                                                  : Casing - Logger
BS  .                                                  : Bit Size
DFT .                                                  : Type of Fluid In Hole
DFD .                                                  : Drilling Fluid Density
DFV .                                                  : Drilling Fluid Viscosity
DFPH.                                                  : Drilling Fluid pH
DFL .                                                  : Drilling Fluid Loss
MSS .                                                  : Source of Sample
RMS .                                                  : Mud Resitivity
MST .                                                  : Rm Temperature
RMFS.                                                  : Mud Filtrate Resistivity
MFST.                                                  : Rmf Temperature
RMCS.                                                  : Mud Cake Resitivity
MCST.                                                  : Rmc Temperature
MFSS.                                                  : Source of Rmf
MCSS.                                                  : Source of Rmc
RMBH.                                                  : Rm at BHT
BHT .                                                  : Bottom Hole Temperature
MRT .                                                  : Max Recorded Temperature
RUN .          3                                       : Run #
DATE.                                                  : Date log was run
TDD .                                                  : Depth - Driller
TDL .                                                  : Depth - Logger
BLI .                                                  : Bottom Log Interval
TLI .                                                  : Top Log Interval
CBD .                                                  : Casing - Driller
CBL .                                                  : Casing - Logger
BS  .                                                  : Bit Size
DFT .                                                  : Type of Fluid In Hole
DFD .                                                  : Drilling Fluid Density
DFV .                                                  : Drilling Fluid Viscosity
DFPH.                                                  : Drilling Fluid pH
DFL .                                                  : Drilling Fluid Loss
MSS .                                                  : Source of Sample
RMS .                                                  : Mud Resitivity
MST .                                                  : Rm Temperature
RMFS.                                                  : Mud Filtrate Resistivity
MFST.                                                  : Rmf Temperature
RMCS.                                                  : Mud Cake Resitivity
MCST.                                                  : Rmc Temperature
MFSS.                                                  : Source of Rmf
MCSS.                                                  : Source of Rmc
RMBH.                                                  : Rm at BHT
BHT .                                                  : Bottom Hole Temperature
MRT .                                                  : Max Recorded Temperature
~Curve Information Section
DEPTH.FT                                               : 
GR.GAPI                                                : 
SP.mV                                                  : 
RES_D.OHMM                                             : 
RES_S.OHMM                                             : 
CALI.IN                                                : 
NPHI_SS.DEC                                            : 
PHIT.DEC                                               : 
PHIE.DEC                                               : 
SW.DEC                                                 : 
BVW.DEC                                                : 
SHALE.DEC                                              : 
SAND.DEC                                               : 
LS.DEC                                                 : 
RHOB.G/CC                                              : 
RHOB_ORG.G/CC                                          : 
DEN_FLAG.                                              : 
VP.FT/S                                                : 
VP_ORG.FT/S                                            : 
VP_FLAG.                                               : 
VS.FT/S                                                : 
VS_FLAG.                                               : 
AI.                                                    : 
AI_ORG.                                                : 
PR.                                                    : 
PRFRAME.                                               : 
~ASCII Log Data Section
# ...
      2759.0     63.3910    -46.1270      0.5050      1.1130      9.6180   -999.0000      0.3091      0.1226      1.0000      0.1226      0.6035      0.3965      0.0000      2.1441   -999.0000      1.0000   7520.8335   7412.0195      1.0000   3171.5134      1.0000  16125.3936   -999.0000      0.3919      0.2639
      2759.5     60.4280    -47.7510      0.4990      1.0560      9.5560   -999.0000      0.3060      0.1410      1.0000      0.1410      0.5392      0.4608      0.0000      2.1488   -999.0000      1.0000   7541.6665   7369.9028      1.0000   3169.8455      1.0000  16205.7334   -999.0000      0.3927      0.2497
      2760.0     57.5100    -49.9920      0.4940      1.0270      9.5380   -999.0000      0.3066      0.1546      1.0000      0.1546      0.4958      0.5042      0.0000      2.1475   -999.0000      1.0000   7604.1665   7477.8096      1.0000   3189.3672      1.0000  16330.0801   -999.0000      0.3933      0.2400
      2760.5     54.5870    -52.7680      0.4900      1.0550      9.7400   -999.0000      0.3081      0.1683      1.0000      0.1683      0.4536      0.5464      0.0000      2.1448   -999.0000      1.0000   7666.6665   7930.0884      1.0000   3241.1211      1.0000  16443.6914   -999.0000      0.3912      0.2307
      2761.0     52.2990    -55.5460      0.4830      1.1130      9.9890   -999.0000      0.3101      0.1800      1.0000      0.1800      0.4193      0.5807      0.0000      2.1413   -999.0000      1.0000   7812.5000   7858.7314      1.0000   3283.8584      1.0000  16728.9766   -999.0000      0.3927      0.2231
      2761.5     50.9410    -58.3700      0.4760      1.2080     10.1770   -999.0000      0.3123      0.1889      1.0000      0.1889      0.3952      0.6048      0.0000      2.1374   -999.0000      1.0000   7770.8335   7721.2324      1.0000   3331.9380      1.0000  16609.2598   -999.0000      0.3874      0.2177
      2762.0     51.4550    -60.9310      0.4660      1.4350     10.3180   -999.0000      0.3120      0.1899      1.0000      0.1899      0.3915      0.6085      0.0000      2.1378   -999.0000      1.0000   7854.1665   9120.3428      1.0000   3363.9912      1.0000  16790.7441   -999.0000      0.3877      0.2169
      2762.5     52.3420    -63.4450      0.4490      1.7050     10.4270   -999.0000      0.3147      0.1914      1.0000      0.1914      0.3919      0.6081      0.0000      2.1334   -999.0000      1.0000   7937.5000  12371.9502      1.0000   3390.7019      1.0000  16933.8301   -999.0000      0.3884      0.2170
      2763.0     52.7540    -65.3640      0.4320      1.7960     10.5360   -999.0000      0.3202      0.1955      1.0000      0.1955      0.3895      0.6105      0.0000      2.1243   -999.0000      1.0000   7875.0000  10316.4043      1.0000   3380.0176      1.0000  16728.6094   -999.0000      0.3871      0.2164
      2763.5     52.9070    -66.4560      0.4150      1.5750     10.6450   -999.0000      0.3287      0.2014      1.0000      0.2014      0.3873      0.6127      0.0000      2.1102   -999.0000      1.0000   7812.5000   8487.1631      1.0000   3289.2007      1.0000  16486.0664   -999.0000      0.3923      0.2159
      2764.0     52.6040    -67.5500      0.3990      1.4230     10.8060   -999.0000      0.3381      0.2096      1.0000      0.2096      0.3802      0.6198      0.0000      2.0946   -999.0000      1.0000   7583.3335   7590.0747      1.0000   3112.0808      1.0000  15884.2539   -999.0000      0.3987      0.2144
      2764.5     52.1060    -68.6430      0.3840      1.3560     11.1270   -999.0000      0.3489      0.2194      1.0000      0.2194      0.3711      0.6289      0.0000      2.0768   -999.0000      1.0000   7184.2695   7184.2695      0.0000   2856.8474      1.0000  14920.0449   -999.0000      0.4061      0.2123
      2765.0     51.6080    -70.0250      0.3700      1.3020     11.4440   -999.0000      0.3616      0.2310      1.0000      0.2310      0.3610      0.6390      0.0000      2.0557   -999.0000      1.0000   6817.1440   6817.1440      0.0000   2600.2759      1.0000  14014.1094   -999.0000      0.4149      0.2101
      2765.5     51.1060    -71.7800      0.3550      1.3120     11.9510   -999.0000      0.3752      0.2440      1.0000      0.2440      0.3496      0.6504      0.0000      2.0331   -999.0000      1.0000   6582.7583   6582.7583      0.0000   2404.9675      1.0000  13383.5039   -999.0000      0.4230      0.2076
      2766.0     51.1430    -73.5370      0.3480      1.3170     12.4070   -999.0000      0.3887      0.2551      1.0000      0.2551      0.3437      0.6563      0.0000      2.0107   -999.0000      1.0000   6422.6079   6422.6079      0.0000   2257.0974      1.0000  12914.0039   -999.0000      0.4295      0.2063
      2766.5     52.4690    -75.2940      0.3420      1.2550     12.5080   -999.0000      0.4007      0.2599      1.0000      0.2599      0.3514      0.6486      0.0000      1.9909   -999.0000      1.0000   6240.4829   6240.4829      0.0000   2121.1638      1.0000  12424.1084   -999.0000      0.4347      0.2080
      2767.0     53.8140    -77.0550      0.3350      1.2660     12.6030   -999.0000      0.4096      0.2623      1.0000      0.2623      0.3596      0.6404      0.0000      1.9762   -999.0000      1.0000   6052.6460   6052.6460      0.0000   2001.7228      1.0000  11961.4971   -999.0000      0.4386      0.2098
      2767.5     53.2470    -78.5630      0.3290      1.3340     12.7600   -999.0000      0.4148      0.2704      1.0000      0.2704      0.3482      0.6518      0.0000      1.9676   -999.0000      1.0000   5956.8130   5956.8130      0.0000   1920.8378      1.0000  11720.5527   -999.0000      0.4420      0.2073
      2768.0     52.4690    -79.9980      0.3250      1.4340     13.0080   -999.0000      0.4174      0.2777      1.0000      0.2777      0.3348      0.6652      0.0000      1.9632   -999.0000      1.0000   5925.0483   5925.0483      0.0000   1893.2129      1.0000  11631.8164   -999.0000      0.4431      0.2043
      2768.5     51.7230    -81.1460      0.3230      1.3460     13.3190   -999.0000      0.4189      0.2836      1.0000      0.2836      0.3229      0.6771      0.0000      1.9607   -999.0000      1.0000   5944.9146   5944.9146      0.0000   1908.9321      1.0000  11656.2764   -999.0000      0.4425      0.2017
      2769.0     53.1840    -81.7660      0.3210      1.2520     13.4480   -999.0000      0.4203      0.2790      1.0000      0.2790      0.3362      0.6638      0.0000      1.9585   -999.0000      1.0000   6018.1147   6018.1147      0.0000   1952.9968      1.0000  11786.6543   -999.0000      0.4411      0.2046
      2769.5     54.9880    -82.2770      0.3190      1.1960     13.3110   -999.0000      0.4201      0.2714      1.0000      0.2714      0.3539      0.6461      0.0000      1.9589   -999.0000      1.0000   6096.8916   6096.8916      0.0000   2007.6021      1.0000  11943.0547   -999.0000      0.4392      0.2085
      2770.0     56.3900    -82.3700      0.3170      1.1670     13.1190   -999.0000      0.4180      0.2638      1.0000      0.2638      0.3690      0.6310      0.0000      1.9624   -999.0000      1.0000   6157.8633   6157.8633      0.0000   2043.9912      1.0000  12084.3340   -999.0000      0.4381      0.2119
      2770.5     54.7950    -82.4660      0.3150      1.1880     12.9960   -999.0000      0.4148      0.2691      1.0000      0.2691      0.3511      0.6489      0.0000      1.9677   -999.0000      1.0000   6160.0249   6160.0249      0.0000   2053.9675      1.0000  12121.1475   -999.0000      0.4375      0.2079
      2771.0     52.5800    -82.5630      0.3130      1.1770     13.0100   -999.0000      0.4099      0.2759      1.0000      0.2759      0.3269      0.6731      0.0000      1.9756   -999.0000      1.0000   6135.7974   6135.7974      0.0000   2051.5693      1.0000  12121.5986   -999.0000      0.4371      0.2026
      2771.5     50.3390    -82.6600      0.3110      1.1530     13.0940   -999.0000      0.4048      0.2820      1.0000      0.2820      0.3033      0.6967      0.0000      1.9839   -999.0000      1.0000   6148.5107   6148.5107      0.0000   2069.2991      1.0000  12198.1787   -999.0000      0.4361      0.1973
