~Version Information Section
VERS.          2.0                                     : CWLS LOG ASCII Standard
WRAP.          NO                                      : One line per depth step
~Well Information Section
STRT.FT        900.0                                   : Start Depth
STOP.FT        5500.0                                  : Stop Depth
STEP.FT        0.5                                     : Step
NULL.          -999.0000                               : Null Value
COMP.          UNION TEXAS PETROLEUM CORP              : Company
WELL.          FEE #989                                : Well
FLD .          SULPHUR MINES                           : Field
LOC .                                                  : Location
LOC1.                                                  : Location 1
CTRY.          USA                                     : Country
STAT.          LOUISIANA                               : State
CNTY.          CALCASIEU                               : County
UWI .          170192138600                            : UWI Number
API .          170192138600                            : API Number
SECT.          29                                      : Section
TOWN.          9S                                      : Township
RNGE.          10W                                     : Range
PDAT.          BHF                                     : Perm Datum
EPD .          12.5                                    : Elevation
LMF .          RKB                                     : Log Measured From
DMF .          RKB                                     : Drill Measured From
APD .          15.5                                    : Above Perm Datum
EKB .          28                                      : Elev-Kelly Bushing.
EDF .          27                                      : Elev-Drill Floor
EGL .          12.5                                    : Elev-Ground Level
SRVC.          Petcom, Inc.                            : Service Company
DATE.          18 Oct 2018 @ 20:09                     : Date
~Parameter Information Section
RUN .          1                                       : Run #
DATE.          22 JAN 1985                             : Date log was run
TDD .          5473                                    : Depth - Driller
TDL .          5476                                    : Depth - Logger
BLI .          5472                                    : Bottom Log Interval
TLI .          1027                                    : Top Log Interval
CBD .          9 5/8" @ 1030'                          : Casing - Driller
CBL .          1027                                    : Casing - Logger
BS  .          8.5                                     : Bit Size
DFT .          LIGNOSULFATE                            : Type of Fluid In Hole
DFD .          9.6                                     : Drilling Fluid Density
DFV .          51                                      : Drilling Fluid Viscosity
DFPH.          11.0                                    : Drilling Fluid pH
DFL .          6.0                                     : Drilling Fluid Loss
MSS .          MUD PIT                                 : Source of Sample
RMS .          2.21                                    : Mud Resitivity
MST .          40                                      : Rm Temperature
RMFS.          1.66                                    : Mud Filtrate Resistivity
MFST.          40                                      : Rmf Temperature
RMCS.          3.32                                    : Mud Cake Resitivity
MCST.          40                                      : Rmc Temperature
MFSS.          CALC                                    : Source of Rmf
MCSS.          CALC                                    : Source of Rmc
RMBH.          0.792                                   : Rm at BHT
BHT .          124                                     : Bottom Hole Temperature
MRT .          124 DEGF                                : Max Recorded Temperature
RUN .          2                                       : Run #
DATE.                                                  : Date log was run
TDD .                                                  : Depth - Driller
TDL .                                                  : Depth - Logger
BLI .                                                  : Bottom Log Interval
TLI .                                                  : Top Log Interval
CBD .                                                  : Casing - Driller
CBL .                                                  : Casing - Logger
BS  .                                                  : Bit Size
DFT .                                                  : Type of Fluid In Hole
DFD .                                                  : Drilling Fluid Density
DFV .                                                  : Drilling Fluid Viscosity
DFPH.                                                  : Drilling Fluid pH
DFL .                                                  : Drilling Fluid Loss
MSS .                                                  : Source of Sample
RMS .                                                  : Mud Resitivity
MST .                                                  : Rm Temperature
RMFS.                                                  : Mud Filtrate Resistivity
MFST.                                                  : Rmf Temperature
RMCS.                                                  : Mud Cake Resitivity
MCST.                                                  : Rmc Temperature
MFSS.                                                  : Source of Rmf
MCSS.                                                  : Source of Rmc
RMBH.                                                  : Rm at BHT
BHT .                                                  : Bottom Hole Temperature
MRT .                                                  : Max Recorded Temperature
RUN .          3                                       : Run #
DATE.                                                  : Date log was run
TDD .                                                  : Depth - Driller
TDL .                                                  : Depth - Logger
BLI .                                                  : Bottom Log Interval
TLI .                                                  : Top Log Interval
CBD .                                                  : Casing - Driller
CBL .                                                  : Casing - Logger
BS  .                                                  : Bit Size
DFT .                                                  : Type of Fluid In Hole
DFD .                                                  : Drilling Fluid Density
DFV .                                                  : Drilling Fluid Viscosity
DFPH.                                                  : Drilling Fluid pH
DFL .                                                  : Drilling Fluid Loss
MSS .                                                  : Source of Sample
RMS .                                                  : Mud Resitivity
MST .                                                  : Rm Temperature
RMFS.                                                  : Mud Filtrate Resistivity
MFST.                                                  : Rmf Temperature
RMCS.                                                  : Mud Cake Resitivity
MCST.                                                  : Rmc Temperature
MFSS.                                                  : Source of Rmf
MCSS.                                                  : Source of Rmc
RMBH.                                                  : Rm at BHT
BHT .                                                  : Bottom Hole Temperature
MRT .                                                  : Max Recorded Temperature
~Curve Information Section
DEPTH.FT                                               : 
GR.GAPI                                                : 
SP.mV                                                  : 
RES_D.OHMM                                             : 
RES_S.OHMM                                             : 
CALI.IN                                                : 
NPHI_SS.DEC                                            : 
PHIT.DEC                                               : 
PHIE.DEC                                               : 
SW.DEC                                                 : 
BVW.DEC                                                : 
SHALE.DEC                                              : 
SAND.DEC                                               : 
LS.DEC                                                 : 
RHOB.G/CC                                              : 
RHOB_ORG.G/CC                                          : 
DEN_FLAG.                                              : 
VP.FT/S                                                : 
VP_ORG.FT/S                                            : 
VP_FLAG.                                               : 
VS.FT/S                                                : 
VS_FLAG.                                               : 
AI.                                                    : 
AI_ORG.                                                : 
PR.                                                    : 
PRFRAME.                                               : 
~ASCII Log Data Section
# ...
      1290.0     47.2940    -38.5520      1.3580      2.1900     10.5980   -999.0000      0.3367      0.1265      1.0000      0.1265      0.6242      0.3758      0.0000      2.0987   -999.0000      1.0000   6802.4893   6802.4893      0.0000   2609.1868      1.0000  14276.0859   -999.0000      0.4138      0.2685
      1290.5     47.7470    -37.5010      1.3750      2.0670     10.6030   -999.0000      0.3374      0.1201      1.0000      0.1201      0.6441      0.3559      0.0000      2.0976   -999.0000      1.0000   6625.4565   6625.4565      0.0000   2531.6121      1.0000  13897.4189   -999.0000      0.4145      0.2729
      1291.0     48.2000    -35.9160      1.3600      1.9960     10.6080   -999.0000      0.3407      0.1138      1.0000      0.1138      0.6661      0.3339      0.0000      2.0923   -999.0000      1.0000   6594.2617   6594.2617      0.0000   2489.0327      1.0000  13797.0996   -999.0000      0.4169      0.2778
      1291.5     48.6590    -34.3030      1.3380      1.9520     10.6140   -999.0000      0.3473      0.1083      1.0000      0.1083      0.6883      0.3117      0.0000      2.0814   -999.0000      1.0000   6630.6846   6630.6846      0.0000   2500.1057      1.0000  13801.0537   -999.0000      0.4171      0.2827
      1292.0     48.5330    -32.8030      1.3170      1.8180     10.6190   -999.0000      0.3558      0.1105      1.0000      0.1105      0.6895      0.3105      0.0000      2.0674   -999.0000      1.0000   6670.1353   6670.1353      0.0000   2540.9211      1.0000  13790.0156   -999.0000      0.4151      0.2830
      1292.5     46.7260    -32.6300      1.2960      1.6300     10.6240   -999.0000      0.3606      0.1347      1.0000      0.1347      0.6264      0.3736      0.0000      2.0590   -999.0000      1.0000   6758.9492   6758.9492      0.0000   2584.6597      1.0000  13916.7246   -999.0000      0.4144      0.2690
      1293.0     44.7040    -33.4970      1.2750      1.4800     10.6290   -999.0000      0.3641      0.1534      1.0000      0.1534      0.5787      0.4213      0.0000      2.0530   -999.0000      1.0000   6807.1665   6807.1665      0.0000   2537.0691      1.0000  13974.8887   -999.0000      0.4193      0.2584
      1293.5     42.6710    -35.8150      1.2550      1.4520     10.6350   -999.0000      0.3682      0.1727      1.0000      0.1727      0.5310      0.4690      0.0000      2.0458   -999.0000      1.0000   6478.1104   6478.1104      0.0000   2423.0120      1.0000  13252.9678   -999.0000      0.4187      0.2478
      1294.0     42.7030    -38.5090      1.2350      1.5260     10.6400   -999.0000      0.3745      0.1792      1.0000      0.1792      0.5215      0.4785      0.0000      2.0353   -999.0000      1.0000   6298.7368   6298.7368      0.0000   2386.8923      1.0000  12819.8525   -999.0000      0.4162      0.2457
      1294.5     43.2800    -41.1950      1.2250      1.5830     10.6470   -999.0000      0.3829      0.1829      1.0000      0.1829      0.5223      0.4777      0.0000      2.0215   -999.0000      1.0000   6661.4263   6661.4263      0.0000   2438.6172      1.0000  13466.1260   -999.0000      0.4226      0.2459
      1295.0     43.8500    -43.5090      1.2340      1.6420     10.9320   -999.0000      0.3921      0.1864      1.0000      0.1864      0.5245      0.4755      0.0000      2.0062   -999.0000      1.0000   6686.8159   6686.8159      0.0000   2503.1970      1.0000  13414.8867   -999.0000      0.4185      0.2464
      1295.5     44.4190    -45.4670      1.2400      1.7110     11.8110   -999.0000      0.3957      0.1867      1.0000      0.1867      0.5282      0.4718      0.0000      2.0002   -999.0000      1.0000   6559.3125   6559.3125      0.0000   2418.0437      1.0000  13120.2080   -999.0000      0.4214      0.2472
      1296.0     44.9880    -45.1660      1.2600      1.6940     12.7840   -999.0000      0.3945      0.1813      1.0000      0.1813      0.5405      0.4595      0.0000      2.0023   -999.0000      1.0000   6317.8379   6317.8379      0.0000   2270.5049      1.0000  12650.4678   -999.0000      0.4258      0.2500
      1296.5     45.5550    -43.1850      1.2820      1.6710     13.2470   -999.0000      0.3907      0.1722      1.0000      0.1722      0.5592      0.4408      0.0000      2.0087   -999.0000      1.0000   6091.5068   6091.5068      0.0000   2144.9348      1.0000  12235.9102   -999.0000      0.4292      0.2541
      1297.0     45.7920    -40.4800      1.3160      1.6490     12.4090   -999.0000      0.3873      0.1649      1.0000      0.1649      0.5741      0.4259      0.0000      2.0144   -999.0000      1.0000   6052.6460   6052.6460      0.0000   2142.0222      1.0000  12192.6777   -999.0000      0.4284      0.2574
      1297.5     45.0180    -37.7840      1.3520      1.8130     11.6400   -999.0000      0.3839      0.1655      1.0000      0.1655      0.5688      0.4312      0.0000      2.0201   -999.0000      1.0000   6306.0850   6306.0850      0.0000   2281.9167      1.0000  12738.7246   -999.0000      0.4247      0.2562
      1298.0     43.5180    -35.0880      1.3880      1.9990     11.2360   -999.0000      0.3754      0.1690      1.0000      0.1690      0.5498      0.4502      0.0000      2.0340   -999.0000      1.0000   6655.9727   6655.9727      0.0000   2475.9714      1.0000  13538.3594   -999.0000      0.4197      0.2520
      1298.5     42.4220    -32.3890      1.4260      2.0530     11.3880   -999.0000      0.3654      0.1683      1.0000      0.1683      0.5392      0.4608      0.0000      2.0506   -999.0000      1.0000   6835.6436   6835.6436      0.0000   2691.0493      1.0000  14017.0957   -999.0000      0.4083      0.2497
      1299.0     42.4920    -30.6170      1.4390      1.8280     11.5560   -999.0000      0.3546      0.1606      1.0000      0.1606      0.5472      0.4528      0.0000      2.0685   -999.0000      1.0000   7173.9102   7173.9102      0.0000   2823.3499      1.0000  14839.0029   -999.0000      0.4084      0.2514
      1299.5     44.0050    -29.1820      1.4530      1.8180     11.7540   -999.0000      0.3450      0.1445      1.0000      0.1445      0.5813      0.4187      0.0000      2.0845   -999.0000      1.0000   7189.7964   7189.7964      0.0000   2910.3914      1.0000  14987.0264   -999.0000      0.4020      0.2590
      1300.0     45.4960    -29.0170      1.4610      1.7630     11.9270   -999.0000      0.3385      0.1316      1.0000      0.1316      0.6112      0.3888      0.0000      2.0955   -999.0000      1.0000   7186.8506   7186.8506      0.0000   2907.2085      1.0000  15059.7178   -999.0000      0.4022      0.2656
      1300.5     46.9900    -29.3000      1.4380      1.6770     11.9930   -999.0000      0.3400      0.1196      1.0000      0.1196      0.6482      0.3518      0.0000      2.0932   -999.0000      1.0000   7161.0669   7161.0669      0.0000   2866.1550      1.0000  14989.6104   -999.0000      0.4046      0.2738
      1301.0     48.1500    -30.9800      1.4230      1.6000     11.9220   -999.0000      0.3439      0.1091      1.0000      0.1091      0.6828      0.3172      0.0000      2.0871   -999.0000      1.0000   7024.1489   7024.1489      0.0000   2774.5747      1.0000  14659.8984   -999.0000      0.4076      0.2815
      1301.5     48.6550    -32.9120      1.4080      1.5810     11.7720   -999.0000      0.3490      0.1070      1.0000      0.1070      0.6934      0.3066      0.0000      2.0787   -999.0000      1.0000   6817.3296   6817.3296      0.0000   2649.8337      1.0000  14170.9834   -999.0000      0.4110      0.2839
      1302.0     47.1340    -36.4370      1.3830      1.5810     11.5070   -999.0000      0.3527      0.1317      1.0000      0.1317      0.6265      0.3735      0.0000      2.0721   -999.0000      1.0000   6657.7451   6657.7451      0.0000   2511.4954      1.0000  13795.4746   -999.0000      0.4170      0.2690
      1302.5     44.8830    -39.9080      1.3480      1.6000     11.3280   -999.0000      0.3622      0.1601      1.0000      0.1601      0.5582      0.4418      0.0000      2.0559   -999.0000      1.0000   6465.9629   6465.9629      0.0000   2358.8740      1.0000  13293.0684   -999.0000      0.4232      0.2539
